ID;Название;Регион;Город;Адрес;Индекс;Телефон;Мобильный телефон;Email;Сайт;Рубрика;Подрубрика;Время работы;Способы оплаты;whatsapp;viber;telegram;vkontakte;odnoklassniki;youtube;Факс;rutube;yandex zen;Кол-во оценок;Рейтинг;Кол-во отзывов;Широта;Долгота
1454794720;Mini Авто-Авангард;Москва и Московская область;;Московская область, городской округ Красногорск, М-9 Балтия, 25-й километр, вл22;;+7 (495) 126-07-87;;email@mini-avangard.ru;https://www.mini-avangard.ru/?utm_campaign=MAPS_Yandex.Maps_MINI_NR&utm_medium=MAPS&utm_source=Yandex.Maps;Автомобили / Автосервис, услуги, Автомобили / Продажа;Автосалоны, Автосервисы;ежедневно, 08:00–21:00;;74950250006;;https://t.me/major_auto_official;https://vk.com/public33517731;;https://www.youtube.com/@MajorAutoRu;;;;328;4.8;83;55.791704;37.258927
92585360651;Антикор Снегири;Москва и Московская область;;Станционная ул., 1Б, дачный посёлок Снегири;;;+7 (926) 829-05-46;antikorsnegiri@mail.ru;https://antikor-snegiri.clients.site/;Автомобили / Автосервис, услуги, Услуги / Прочее;Кузовной ремонт, Нанесение покрытий;ежедневно, 10:00–20:00;скидки на услуги льготным категориям, предоплата, постоплата, наличными, оплата картой, банковским переводом, наложенным платежом, безналичная, онлайн, QR-код, СБП, оплата кредитной картой;;;;;;;;;;107;5.0;82;55.884249;37.03561
5838456195;СТО Авто Сервис;Москва и Московская область;;Пироговское ш., 2Т, д. Коргашино;;;+7 (966) 381-26-58;8c4075d5481d476e945486754f783364@sentry.io, evo1ver4@gmail.com;https://evo1ver4.wixsite.com/cto1;Автомобили / Автосервис, услуги;Автосервисы;ежедневно, 09:00–19:00;;;;;;;;;;;26;4.0;8;55.969414;37.743333
92539543167;Виллакс;Москва и Московская область;;посёлок Нагорное, 2Б;141031;+7 (495) 744-87-94;+7 (929) 530-12-55;willax@inbox.ru;http://f-motors.ru/;Автомобили / Автосервис, услуги, Производство и поставки / Машиностроение;Автосервисы, Ремонт двигателей, Ремонт турбин;пн-сб 10:00–20:00;предоплата, наличными, оплата картой, банковским переводом, безналичная, онлайн, QR-код, оформление кредита;79295301255;;https://t.me/+7-929-530-12-55;https://vk.com/willax_auto;;https://www.youtube.com/channel/UCEiO15Ln3CzfihVgNZr2dbQ;;https://rutube.ru/channel/32882515/videos;;489;5.0;241;55.924874;37.589593
75525239533;Автомойка самообслуживания;Москва и Московская область;;Московская область, городской округ Мытищи, посёлок Вешки, торгово-промышленная зона Алтуфьево;;+7 (495) 664-41-99;;info@xn----8sbzldix.xn;http://мой-сам.рф/, http://мой-сам.рф/?utm_campaign=moi_sam&utm_source=yandex_maps, https://мой-сам.рф/karta-moek/мойка-на-дмитровке;Автомобили / Автосервис, услуги;Автомойки;ежедневно, круглосуточно;;;;;;;https://www.youtube.com/%D0%BC%D0%BE%D0%B9%D1%81%D0%B0%D0%BC%D1%80%D1%84, https://www.youtube.com/мойсамрф, https://youtube.com/channel/UCn7dIyDA_dBttCCS-MrcCig;;;;1788;4.3;792;55.912443;37.589572
14386485541;Кузов Маркет;Москва и Московская область;;Ямская ул., 1, рабочий посёлок Большие Вязёмы;143050;8 (800) 775-19-64;;autocolord@yandex.ru, buzina_999@mail.ru, parasolka96@mail.ru, tokmancev.n@mail.ru;https://www.kuzov-auto.ru/;Автомобили / Автосервис, услуги, Автомобили / Запчасти, аксессуары;Автоэмали, Кузовной ремонт;;;;;;https://vk.com/kuzovmarketru;;https://www.youtube.com/channel/UCmLxySfBel1lJSR19vhWq2A;;;;8;4.0;1;55.632274;37.002191
92339922067;Профсервис;Москва и Московская область;;д. Павлищево, территория Промышленной Базы, 6;143214;;+7 (925) 279-17-03, +7 (925) 279-17-04, +7 (985) 510-49-49;info-tps.mo@yandex.ru;;Автомобили / Автосервис, услуги, Автомобили / Продажа;Автомагазины, Автосервисы, Ремонт грузовых автомобилей;ежедневно, 09:00–18:00;банковским переводом;79252791703;;https://t.me/tpsmo1;;;;;;;163;4.7;71;55.571952;36.00681
91840113537;Разборка выкуп ремонт грузовиков и полуприцепов - Разборгруз;Москва и Московская область;;;142074;;+7 (916) 324-44-71, +7 (993) 914-44-71;dmsergeew@bk.ru, inforkomtools@mail.ru;https://razborgruz.ru/;Автомобили / Автосервис, услуги, Автомобили / Запчасти, аксессуары, Производство и поставки / Машиностроение;Авторазборы, Автосервисы, Грузовая техника;ежедневно, 08:00–19:00;;79163244471, 79167720255;https://viber.click/79163244471, https://viber.click/79167720255;;https://vk.com/razborgruzru;http://ok.ru/group/54819438723093, https://ok.ru/group/53785439699082;http://youtube.com/channel/UC8l6LR-6eDSKLmKRqSFNUGQ, https://www.youtube.com/channel/UC8l6LR-6eDSKLmKRqSFNUGQ?view_as=subscriber, https://www.youtube.com/channel/UC8l6LR-6eDSKLmKRqSFNUGQ/videos, https://youtube.com/channel/UC8l6LR-6eDSKLmKRqSFNUGQ/featured?view_as=subscriber;;;;21;3.5;5;55.332309;37.717402
75064330206;Пропан-Профи;Москва и Московская область;;Советская ул., 16А, рабочий посёлок Октябрьский;;;+7 (916) 993-77-88;info@propanprofi.ru;https://propanprofi.ru/;Автомобили / Автосервис, услуги, Производство и поставки / Нефтегазовая промышленность;Автосервисы, Газовое оборудование, Установка ГБО;пн-сб 10:00–20:00;;;;;;;;;;;21;4.3;8;55.619604;37.968561
1002660028;S-Motors;Москва и Московская область;;Московская область, городской округ Коломна, деревня Губастово, посёлок Новое Губастово;;;+7 (926) 469-60-14, +7 (977) 149-45-25;shurik_2003@bk.ru;http://s-motors-msk.ru/;Автомобили / Автосервис, услуги;Автомойки, Автосервисы, Шиномонтажи;ежедневно, 09:00–19:00;наличными, банковским переводом;;;;;;;;;;314;4.9;98;55.240743;38.76465
1361923071;Фотон-Автоком;Москва и Московская область;;д. Горки, вл53Ас3;142712;;+7 (964) 784-52-88, +7 (994) 502-82-55;info@foton-1.ru;https://foton-1.ru/;Автомобили / Автосервис, услуги;Автосервисы, Пункты техосмотра, Ремонт грузовых автомобилей;"пн-пт 09:00–20:00; сб,вс 09:00–18:00";банковским переводом, наличными, оплата картой;79169166632;;;;;;;;;82;4.4;37;55.503766;37.752731
91508362862;STO-Turbina;Москва и Московская область;;ул. Карельский Тупик, 89, ТЛПХ Дружба, д. Картино;;;+7 (929) 564-50-90, +7 (963) 996-80-20;sto-turbina@mail.ru;https://sto-turbina.ru/?utm_source=yandex_maps;Автомобили / Автосервис, услуги, Производство и поставки / Машиностроение;Автосервисы, Ремонт двигателей, Ремонт турбин;ежедневно, 10:00–20:00;наличными;79295645090;;;https://vk.com/club121143499;;https://www.youtube.com/channel/UCjq5fQUAKAxP9CnnV0RLP1A;;;;135;5.0;83;55.585459;37.810971
91297168131;Клубный Сервис 333;Москва и Московская область;;СНТ Лесок-Камкино, 20;;;+7 (929) 571-12-22;clubservice333@yandex.ru;https://clubservice333.clients.site/;Автомобили / Автосервис, услуги;Автосервисы;пн-сб 09:00–19:00;предоплата, постоплата, наличными, оплата картой, банковским переводом, онлайн, QR-код, СБП;79295711222;;https://t.me/+79295711222;;;;;;;91;4.9;41;55.475424;37.820304
5892896674;БИП-автомойка;Москва и Московская область;;посёлок Барвиха, 36А;;+7 (495) 108-55-88;+7 (926) 443-07-97;info@bip-auto.ru;https://www.bip-auto.ru/services/avtomoyka;Автомобили / Автосервис, услуги, Автомобили / Продажа;Автомойки, Детейлинг;"пн-пт 07:00–22:30; сб,вс 08:00–22:30";;;;;;;;;;;667;5.0;237;55.719957;37.26987
5909344848;Автомойка;Москва и Московская область;;;;8 (800) 700-60-34, 8 (800) 850-07-52;+7 (999) 500-67-58;biuro@bkf.pl, info@bkfcarwash.ru, info@desite.ru;http://jivo.chat/JdagyK9ZGC, https://bkfcarwash.ru/;Автомобили / Автосервис, услуги;Автомойки;ежедневно, круглосуточно;;;;;https://vk.com/bkfservice;;https://www.youtube.com/channel/UCMRSGI5ap_NLNnWhvlWe97w, https://www.youtube.com/channel/UCMRSGI5ap_NLNnWhvlWe97w?feature=emb_ch_name_ex, https://www.youtube.com/playlist?list=PLZpEnlF1D53CRwu8kNJnofe4uZb7NEcJc, https://www.youtube.com/signin?context=popup&next=https://www.youtube.com/post_login, https://www.youtube.com/watch?v=-0f_-21hbaI, https://www.youtube.com/watch?v=0-R2101px7o, https://www.youtube.com/watch?v=6yeHWXzloBs, https://www.youtube.com/watch?v=h_A5xlqeCdE, https://www.youtube.com/watch?v=r92urbQzogk, https://www.youtube.com/watch?v=Y-Igt_CHHsE, https://youtube.com/c/BKFCarwash;;;;142;3.0;66;55.614047;37.969263
17505264274;Техцентр новорижский;Москва и Московская область;;Московская область, городской округ Красногорск, Новорижское шоссе, 23-й километр, с5;;+7 (495) 785-54-88;;info@li-motors.com;http://technr.ru/, https://li-motors.com/;Автомобили / Автосервис, услуги;Автосервисы;ежедневно, 09:00–21:00;наличными, оплата картой;;;;;;;;;;457;4.8;182;55.804167;37.296353
52748839468;НеоМеталл;Москва и Московская область;;пр. Металлургов, 6, микрорайон Львовский, Подольск;;;+7 (985) 838-88-17;neometall@inbox.ru;http://www.neo-metall.ru/;Автомобили / Автосервис, услуги, Производство и поставки / Металлургия, Услуги / Прочее;Автосервисы, Металлообработка, Нанесение покрытий;ежедневно, 09:00–21:00;;79858388817;;https://t.me/89858388817;;;http://youtube.com/channel/UCsLY5bAB6FhtqpnkQVQTBhw;;;;44;4.1;12;55.327526;37.517213
17509935536;Везём Колеса;Москва и Московская область;;Центральная ул., 40, д. Высоково;;+7 (495) 025-03-29;+7 (968) 565-14-24;info@vezemkolesa.ru;https://vezemkolesa.ru/;Автомобили / Автосервис, услуги;Шиномонтажи;ежедневно, 09:00–21:00;;;;;;;;;;;62;5.0;54;55.907062;36.933353
1364134522;МАДИ-Мотор;Москва и Московская область;;д. Елино, коттеджный посёлок Елино, 15;;+7 (495) 156-31-55;;info@madimotor.ru, parts@madimotor.ru, tech_director@madimotor.ru, yakubovich@madimotor.ru;http://madimotor.ru/;Автомобили / Автосервис, услуги;Автосервисы;пн-пт 09:00–18:00;;;;;;;;;;;529;4.7;120;55.985573;37.29122
90739812078;Грузовой шиномонтаж;Москва и Московская область;;д. Горки, 80;142402;;+7 (903) 140-03-14, +7 (925) 341-91-76;info@spectrans17.ru;https://spectrans17.ru/;Автомобили / Автосервис, услуги;Шиномонтажи;вт-вс 08:00–19:00;скидки на услуги льготным категориям, дисконтная система скидок, предоплата, постоплата, наличными, оплата картой, электронными деньгами, банковским переводом, sms-платеж, наложенным платежом, рассрочка, безналичная, онлайн, QR-код;79253419176;https://viber.click/79253419176;https://t.me/+79253419176;;;;;;;37;3.9;20;55.919238;38.535358
6051861533;MotorSwapCastom;Москва и Московская область;;Московская область, Богородский городской округ, посёлок городского типа имени Воровского, СНТ Радуга;;;+7 (905) 573-76-83, +7 (988) 323-37-99;motorswapcastom@yandex.ru;https://motorswapcastom.ru/;Автомобили / Автосервис, услуги, Автомобили / Запчасти, аксессуары;Автосервисы, Продажа двигателей, Тюнинг;пн-сб 09:00–18:00;наличными;79055737683;;https://t.me/+79055737683;;;;;;;3;3.8;2;55.735972;38.338969
1007033832;Би-Би;Москва и Московская область;;Большая Тарасовская ул., 111, стр. 5, село Тарасовка;;+7 (495) 241-29-29, +7 (495) 755-99-99, +7 (495) 995-61-59, 8 (800) 250-49-49;+7 (965) 209-64-28;in163@tomail.ru, in195@tomail.ru, in20@tomail.ru, in205@tomail.ru, in25@tomail.ru, shop163@avto49.ru, shop195@avto49.ru, shop20@avto49.ru, shop205@avto49.ru, shop25@avto49.ru;https://bi-bi.ru/;Автомобили / Автосервис, услуги, Автомобили / Запчасти, аксессуары, Автомобили / Продажа;Автомагазины, Шиномонтажи, Шины и диски;ежедневно, 08:00–23:00;наличными, банковским переводом;;;https://t.me/bibi_autobot;https://vk.com/bibiauto49;;;;;;1699;4.9;547;55.955168;37.823315
231836430362;Нефтьмагистраль;Москва и Московская область;;Московская область, Богородский городской округ, Ногинск, М-7 Волга, 57-й километр;;8 (800) 700-46-42;;ksbr@neftm.ru, kulesh@neftm.ru, otzyv@neftm.ru, rabota@neftm.ru;https://neftm.ru/;Автомобили / Автосервис, услуги;Автомойки;ежедневно, круглосуточно;наличными, оплата картой, безналичная, онлайн;;;https://t.me/neftmru;https://vk.com/neftm;;https://youtube.com/@neftmagistral;;;;140;4.4;57;55.841852;38.478808
90260427862;Автосервис;Москва и Московская область;;Московская область, Богородский городской округ, село Кудиново;;;+7 (985) 635-78-48;stepvas1974@yandex.ru;https://avtoservis-1645516872.clients.site/;Автомобили / Автосервис, услуги;Автосервисы, Шиномонтажи;ежедневно, 10:00–20:00, перерыв 14:00–15:00;наличными, банковским переводом;79581967513;;;;;;;;;214;5.0;98;55.764227;38.220048
30686567669;Atv Garage;Москва и Московская область;;Московская область, Одинцовский городской округ, деревня Грязь;;;+7 (977) 033-55-23;info@atvgarage.ru;http://www.atvgarage.ru/;Автомобили / Автосервис, услуги, Спорт / Спортивные товары;Автосервисы, Вездеходы, квадроциклы, Ремонт мототехники;ежедневно, 10:00–22:00;;79770335523;;;;;;;;;31;4.8;24;55.738807;36.929603
6108494809;Porogin.ru;Москва и Московская область;;МКАД, 55-й километр, с3, Москва;;;+7 (926) 048-03-30;info@porogin.ru;https://porogin.ru/;Автомобили / Автосервис, услуги, Автомобили / Запчасти, аксессуары, Автомобили / Продажа;Автоаксессуары, Автомагазины, Автосервисы;ежедневно, 09:00–19:00;;;;;https://vk.com/porogin_ru;;;;;;48;4.4;16;55.72465;37.378003
1219748345;LevMotors Юг;Москва и Московская область;;МКАД, 32-й километр, с1, Москва;142718;+7 (495) 150-70-96;+7 (925) 727-55-50;info@levmotors.ru;https://levmotors.ru/;Автомобили / Автосервис, услуги, Автомобили / Продажа;Автомагазины, Автосервисы;ежедневно, 10:00–20:00;;;;;https://vk.com/club60273058;;;;;;541;4.6;237;55.573812;37.617526
17569196356;Автоматик;Москва и Московская область;;Московская область, Осташковское шоссе, вл14с1;;+7 (495) 136-36-79;;atmmsk@ya.ru, atmmskmap@ya.ru;https://automatic-moskva.ru/?utm_campaign=priority&utm_content=ostashk&utm_medium=maps&utm_source=yandex&utm_term=perehod_iz_profilya;Автомобили / Автосервис, услуги;Автоэвакуаторы, Ремонт АКПП;ежедневно, 07:00–23:00;QR-код, СБП, онлайн, бесконтактная оплата, наличными, постоплата, оплата картой, банковским переводом, безналичная, оплата кредитной картой;79151508841;https://viber.click/79151508841;https://t.me/RemontAKPP;https://vk.com/remont_akpp_automatic;https://ok.ru/group/57864030847193;;;;;34;4.6;3;55.912481;37.668749
1008895059;Автогермес Hyundai;Москва и Московская область;;ш. Энтузиастов, 12А, территория Западная Коммунальная Зона, Балашиха;;+7 (495) 136-05-50;;info@avtogermes.ru;https://www.avtogermes.ru/sale/hyundai/?utm_campaign=spravochnik&utm_medium=cpc&utm_phone=1360700&utm_source=yandex, https://www.avtogermes.ru/ya-map-121/;Автомобили / Автосервис, услуги, Автомобили / Продажа;Автосалоны, Автосервисы, Выкуп авто, Кузовной ремонт;ежедневно, 07:00–21:00;дисконтная система скидок, предоплата, наличными, оплата картой, банковским переводом, рассрочка, безналичная, онлайн, QR-код, СБП, оплата кредитной картой, оформление кредита;74951360555;;https://t.me/avto_germes_new_bot;https://vk.com/avtogermes_ru;;https://www.youtube.com/channel/UCdg_FgRPV2-rwyyYyC2Jprw;;;;6771;5.0;3245;55.788054;37.885894
74251600730;Xl General;Москва и Московская область;;д. Марфино, 19;;+7 (495) 120-33-58;;xl-general@list.ru;http://glass-xl.ru/;Автомобили / Автосервис, услуги, Автомобили / Запчасти, аксессуары;Автостёкла, Тонировка авто;ежедневно, 09:00–21:00;;;;;https://vk.com/xl.general;;;;;;165;5.0;120;55.70108;37.382097
6132633565;Шинхелп;Москва и Московская область;;село Юдино, 55Е, стр. 1;;;+7 (991) 583-57-25;shinomafia@yandex.ru, shinomafiya@yandex.ru;https://шинхелп.рф/;Автомобили / Автосервис, услуги;Шиномонтажи;ежедневно, круглосуточно;;;;;https://vk.com/shinhelp1;;;;;;239;5.0;194;55.656138;37.178018
1009287605;Трак-Сервис Беседы;Москва и Московская область;;д. Мильково, с48;142717;+7 (495) 660-29-12;+7 (910) 491-39-24;service@truck-service.net;https://truck-service.net/;Автомобили / Автосервис, услуги, Автомобили / Продажа;Автомагазины, Автосервисы;пн-пт 09:00–18:00, перерыв 12:00–13:00;;79104913924;;;;;;;;;295;4.6;91;55.604019;37.789698
90250417963;Шиномонтаж в Нестерово на Уровне;Москва и Московская область;;Совхозная ул., 8, д. Нестерово;;;+7 (965) 298-68-05;anatoliy.svirin.ruza@gmail.com;https://tireservice.turbo.site/;Автомобили / Автосервис, услуги;Шиномонтажи;"пн-сб 09:00–17:30; вс 11:00–17:00";наличными, банковским переводом;;;https://t.me/Anatoliyruza;;;;;;;74;4.8;38;55.622385;36.343636
90136014400;Komar Detailing;Москва и Московская область;;Московская область, городской округ Домодедово, М-4 Дон, 33-й километр, с4к1;142030;;+7 (903) 733-56-21, +7 (925) 410-00-04, +7 (993) 342-42-33, +7 (993) 631-00-63, +7 (993) 889-89-33;komarmb@ya.ru;https://komardetailing.see.ru/;Автомобили / Автосервис, услуги, Автомобили / Продажа, Бытовые услуги / Бытовые услуги;Детейлинг, Кузовной ремонт, Оклейка машин;ежедневно, 10:30–22:30;QR-код, СБП, предоплата, онлайн, оплата картой, оплата кредитной картой, наличными, безналичная, банковским переводом;79254100004;;;;;;;;;58;5.0;34;55.471265;37.750963
89896842282;Шинный центр;Москва и Московская область;;Жуковское ш., 3, село Быково;;;+7 (901) 523-19-84;info@shinvo.ru;http://shinvo.ru/;Автомобили / Автосервис, услуги, Автомобили / Запчасти, аксессуары, Автомобили / Продажа;Автомагазины, Шиномонтажи, Шины и диски;ежедневно, 09:00–18:00;наличными, оплата картой, банковским переводом;89015231984;https://viber.click/89015231984;;;;;;;;83;4.3;31;55.614133;38.058007
89676545004;TENET Великан Люберцы;Москва и Московская область;;Новорязанское шоссе, 23-й километр, 15А, п. г. т. Томилино;140011;+7 (495) 141-22-91;;info@tenet-lb.ru;https://dealer-tenet.ru/, https://tenet-velikan.ru/;Автомобили / Автосервис, услуги, Автомобили / Продажа;Автосалоны, Автосервисы;ежедневно, 08:00–21:00;оплата кредитной картой, по ссылке, банковским переводом, постоплата, дисконтная система скидок, оформление кредита, оплата картой, QR-код, наличными;;;;;;;;;;12;4.5;10;55.656331;37.906336
37360145721;5 Колесо;Москва и Московская область;;Московская область, Одинцовский городской округ, А-106, 25-й километр;;;+7 (965) 106-76-86;info@5koleso.ru;http://5koleso.moscow/;Автомобили / Автосервис, услуги;Шиномонтажи;ежедневно, круглосуточно;наличными, оплата картой, QR-код;;;https://t.me/shinomontazh_5Koleso;https://vk.com/club231876327;;https://www.youtube.com/channel/UCqIiy5rIdtVKdh-GBwVKjng?si=qb9RFiaQr8kLvvp_;;https://rutube.ru/shorts/e1f3dee59b785f377c9dab0f87eb2c28;;265;4.7;152;55.706502;37.024198
89649181573;МаксАвто;Москва и Московская область;;;;;+7 (926) 353-03-80;autoprofi-istra@mail.ru, maksauto-dedovsk@mail.ru;https://maksauto-profi.ru/;Автомобили / Автосервис, услуги;Автосервисы, Шиномонтажи;ежедневно, 10:00–19:00;;79263530380;;https://t.me/autoremontnahabino;https://vk.com/maksauto_nahabino;;;;;;16;4.3;4;55.842318;37.197491
89554683379;Автобокс Сервис;Москва и Московская область;;143921, Московская область, город Балашиха, деревня Федурново, ул. Авиарембаза ;;;+7 (977) 377-52-50;2062d0a4929b45348643784b5cb39c36@sentry.wixpress.com, aleksei.marusev@yandex.ru, c183baa23371454f99f417f6616b724d@sentry.wixpress.com, dd0a55ccb8124b9c9d938e3acf41f8aa@sentry.wixpress.com;https://alekseimarusev.wixsite.com/-site;Автомобили / Автосервис, услуги;Автосервисы, Автотехпомощь, Автоэвакуаторы;ежедневно, 10:00–21:00;;79773775250;;;;;;;;;39;4.7;22;55.758644;38.052962
89417966068;ТД Росавтокар;Москва и Московская область;;село Сватково, 201Б;;;+7 (951) 094-40-40;rosavtokar-sp@bk.ru, rosavtokar@bk.ru;https://росавтокар.рф/;Автомобили / Автосервис, услуги, Производство и поставки / Складское и архивное оборудование, Строительство и недвижимость / Строительное оборудование и техника;Автосервисы, Дорожная техника, Складское оборудование;;;;;;;;;;;;0;0.0;0;56.375743;38.206184
6271516645;Автотехцентр БМВ Бумер-Сервис;Москва и Московская область;;территория СОСН Соколовка, 2;;;+7 (926) 270-56-99;boomer-parts@mail.ru;http://www.boomer-service.ru/;Автомобили / Автосервис, услуги;Автосервисы;ежедневно, 10:00–20:00;QR-код, оплата картой, оплата кредитной картой, безналичная, наличными, предоплата;79262705699;;;https://vk.com/bmwsokolovka;;;;;;337;5.0;163;55.773282;37.960731
89361455249;5 Колесо;Москва и Московская область;;д. Грибаново, вл26с1;;;+7 (964) 518-05-46;r.lukin77@yandex.ru;http://5koleso.moscow/;Автомобили / Автосервис, услуги;Шиномонтажи;ежедневно, круглосуточно;наличными, оплата картой;;;https://t.me/shinomontazh_5Koleso;https://vk.com/club231876327;;https://www.youtube.com/channel/UCqIiy5rIdtVKdh-GBwVKjng?si=qb9RFiaQr8kLvvp_;;https://rutube.ru/channel/37170436/;;201;4.1;94;55.738792;37.113391
6277756187;БасТракСервис;Москва и Московская область;;село Белый Раст, 26Б;;;+7 (903) 561-87-52, +7 (968) 777-09-68;priemka@bt-s.ru, zakaz@bt-s.ru;http://www.bt-s.ru/;Автомобили / Автосервис, услуги;Автосервисы;ежедневно, 09:00–21:00;;;;;;;;;;;61;4.6;22;56.131185;37.404654
17584345735;Народный Техосмотр;Москва и Московская область;;д. Пуговичино, территория Промзона Пуговичино, вл2с1;;;+7 (910) 606-18-60;narodniy.tehosmoter@yandex.ru;https://narodniy-tehosmotr.ru/;Автомобили / Автосервис, услуги, Бизнес / Страхование;Автострахование, Пункты техосмотра;ежедневно, 08:00–20:00;наличными, банковским переводом, безналичная;79106061860;;;;;;;;;578;5.0;266;55.526088;37.741181
1012428917;АВТ Трейд, Sdac;Москва и Московская область;;Сходненская ул., 65, корп. 1, д. Чёрная Грязь;;+7 (499) 940-90-47;+7 (916) 942-25-57, +7 (985) 643-71-20;parfenov@avtmotors.ru;http://hino-toyota.ru/;Автомобили / Автосервис, услуги, Автомобили / Продажа, Производство и поставки / Машиностроение;Автомагазины, Автосервисы, Грузовая техника;ежедневно, 08:00–20:00, перерыв 13:00–14:00;наличными, оплата картой, безналичная;79856437120;;;http://vk.com/avt_hino;http://ok.ru/hino.avt;;;;;147;4.6;29;55.97905;37.299103
35820503342;Автобам;Москва и Московская область;;Окское ш., 4, Серпухов;;+7 (495) 255-02-85;;dop@autobam.ru, sever-dop@autobam.ru, sever@autobam.ru, zapad-dop@autobam.ru, zapad@autobam.ru;https://avtobam.ru/, https://www.autobam.ru/;Автомобили / Автосервис, услуги, Автомобили / Запчасти, аксессуары;Автосервисы, Тонировка авто, Шины и диски;ежедневно, 09:00–19:00;;;;;;;;;;;14;4.1;3;54.915589;37.454281
89098047619;Дэльта;Москва и Московская область;;;;;+7 (985) 525-90-45;vpotiomckin@yandex.ru;https://delta-1731420672.clients.site/;Автомобили / Автосервис, услуги, Транспорт и перевозки / Экспедирование и перевозка грузов;Автоэвакуаторы, Перевозка авто;ежедневно, круглосуточно;наличными, оплата картой, электронными деньгами, банковским переводом, sms-платеж, наложенным платежом;79855259045;;;;;;;;;0;0.0;0;56.041818;37.904611
32425567141;Тюнинг центр 4х4;Москва и Московская область;;ул. Ленина, 28, село Ильинское;143421;+7 (495) 772-11-96;+7 (965) 230-10-61;info@tc4x4.ru;http://tc4x4.ru/;Автомобили / Автосервис, услуги, Спорт / Спортивные товары;Автосервисы, Ремонт мототехники, Тюнинг;пн-пт 09:00–19:00;;79269191196;https://viber.click/79269191196;;https://vk.com/tc4x4;;;;;;95;5.0;33;55.76038;37.242845
1012903103;Интерком-Сервис;Москва и Московская область;;Московская область, Ленинский городской округ, посёлок Совхоза имени Ленина;;+7 (495) 641-41-80, +7 (495) 988-84-28;;in@prof-ics.ru;;Автомобили / Автосервис, услуги, Производство и поставки / Машиностроение;Грузовая техника, Кузовной ремонт;ежедневно, 08:00–20:00;дисконтная система скидок, предоплата, постоплата, наличными, оплата картой, банковским переводом, безналичная, онлайн, QR-код, СБП, оплата кредитной картой, бесконтактная оплата;89857601539;;;;;;;;;280;4.6;84;55.581518;37.71808
52433601703;Бренор;Москва и Московская область;;д. Ярлыково, владение Легат, 2;;+7 (495) 115-19-90, +7 (495) 252-22-42;;d.tygashov@trailerautocenter.ru, info@brenor.ru, servis@trailerautocenter.ru, y.pronenko@trailerautocenter.ru;https://brenor.ru/, https://trailerautocenter.ru/;Автомобили / Автосервис, услуги, Автомобили / Продажа;Автомагазины, Автосервисы;ежедневно, 08:00–20:00;предоплата, постоплата, наличными, оплата картой, банковским переводом, безналичная, оплата кредитной картой, бесконтактная оплата, СБП, QR-код, дисконтная система скидок;;;https://t.me/brenor_ru;https://vk.com/brenor__ru;;https://www.youtube.com/@trailerautocenterru/;;;;171;4.9;90;55.281799;37.859514
89046778559;CarVill Service;Москва и Московская область;;Центральная ул., 30, д. Райки;141142;;+7 (909) 663-22-22;raykiservis@yandex.ru;https://carvill.clients.site/;Автомобили / Автосервис, услуги;Автомойки, Автосервисы, Шиномонтажи;ежедневно, 09:00–20:00;предоплата, постоплата, наличными, оплата картой, банковским переводом, рассрочка, безналичная, онлайн;79096632222;;;https://vk.com/public184532829;;;;;;298;4.5;133;55.92251;38.132406
231953521659;Vkr-magister;Москва и Московская область;;Майская ул., 16, коттеджный посёлок Лосиноостровские Усадьбы;;;+7 (916) 664-66-66;vseposalonu@mail.ru;https://vkr-magister.ru/;Автомобили / Автосервис, услуги;Автоателье;ежедневно, 09:00–22:00;;;;;;;;;;;17;4.4;12;55.880061;37.953264
88986202052;Ремонт гидробортов;Москва и Московская область;;Московская область, городской округ Красногорск, рабочий посёлок Нахабино;;;+7 (925) 815-07-52, +7 (926) 327-51-33;info@dekort.ru, info@lorryservis.ru;http://lorryservis.ru/, http://гидроборт.рус/;Автомобили / Автосервис, услуги, Производство и поставки / Гидравлика и пневматика;Автосервисы, Гидравлика и пневматика;пн-пт 09:00–17:00;предоплата, наличными, банковским переводом;79258150752;https://viber.click/79258150752;;;;;;;;84;4.5;35;55.843537;37.201248
1783609217;БОССервис;Москва и Московская область;;;142715;+7 (495) 795-79-15;;info@bosservice.ru;https://bosservice.ru/;Автомобили / Автосервис, услуги, Автомобили / Продажа, Производство и поставки / Машиностроение;Автомагазины, Производство автозапчастей, Тюнинг;пн-пт 09:00–18:00;наличными, оплата картой, банковским переводом, СБП, оплата кредитной картой;;;;https://vk.com/bosservice;;;;;;5;4.1;1;55.584996;37.739353
88870508011;Steklo-car;Москва и Московская область;;Осташковское ш., вл5с1, Мытищи;;+7 (499) 281-64-96;;office-altufevo@steklo-car.ru, office-kuntsevo@steklo-car.ru, office-ostashkovo@steklo-car.ru, office-reutov@steklo-car.ru, office-tushino@steklo-car.ru, office-varshavka@steklo-car.ru;http://steklo-car.ru/;Автомобили / Автосервис, услуги, Автомобили / Запчасти, аксессуары;Автосервисы, Автостёкла;"пн-пт 09:00–20:00; сб,вс 10:00–18:00";;79260203075;;https://t.me/steklocarbot;https://vk.com/steklo__car;;https://www.youtube.com/watch?v=yD0VLYLEWnU;;;;186;4.7;68;55.901652;37.666638
17599760950;Omoda, Авангард Моторс;Москва и Московская область;;Шоссейная ул., 297, село Быково;;+7 (499) 707-09-77;;amotorsgyk@yandex.ru;https://omoda-avangard.ru/, https://omodaam.ru/;Автомобили / Автосервис, услуги, Автомобили / Продажа;Автосалоны, Автосервисы;ежедневно, 09:00–21:00;дисконтная система скидок, предоплата, постоплата, наличными, оплата картой, банковским переводом, рассрочка, безналичная, QR-код, СБП, оплата кредитной картой, оформление кредита;;;https://t.me/avangardmotors_omoda;https://vk.com/omodaamotors;;;;;;245;5.0;83;55.613843;38.061047
1015026857;Автосервис Газель;Москва и Московская область;;Островецкое ш., 8, д. Верея;140153;;+7 (916) 465-79-51, +7 (965) 229-87-96;vereyauto@rambler.ru;http://vereyauto.ru/;Автомобили / Автосервис, услуги, Производство и поставки / Машиностроение;Автосервисы, Ремонт двигателей;пн-сб 09:00–18:00, перерыв 13:00–14:00;постоплата, наличными, оплата картой, банковским переводом, безналичная;89653314808;https://viber.click/79653280527;https://t.me/8-965-331-48-08;;;;;;;236;4.9;97;55.619665;38.032995
232019774654;SteelWorks24;Москва и Московская область;;Восточная ул., 6А, промзона Технопарк, п. г. т. Горки Ленинские;142712;+7 (499) 216-81-14;;info@steelworks24.ru;https://steelworks24.ru/;Автомобили / Автосервис, услуги, Строительство и недвижимость / Строительство, Услуги / Прочее;Нанесение покрытий, Покраска автомобилей, Промышленная очистка сооружений и оборудования;пн-сб 09:00–19:30;дисконтная система скидок, постоплата, наличными, оплата картой, электронными деньгами, банковским переводом, безналичная, онлайн;79850834775;;https://t.me/79850834775;;;;;;;220;5.0;123;55.52859;37.776586
88529666263;Рольф Сервис Звезда Столицы Каширка;Москва и Московская область;;посёлок Развилка, вл17;142717;+7 (495) 153-03-69;;askorovyakova@rolf.ru, email@rolf.ru, hotline_acs@rolf.ru, hotline_xim@rolf.ru, iagolub@rolf.ru, info@audi-sever.ru, reception-north@rolf.ru, rolf-service@4px.ru, yvkrugliak@rolf.ru;https://www.rolf.ru/service/salon-rolf-servis-zvezda-stolizy-kashirka/?utm_campaign=smrt_zsk_service_service&utm_medium=maps&utm_source=yandex_maps;Автомобили / Автосервис, услуги, Автомобили / Продажа;Автомагазины, Автосервисы, Кузовной ремонт, Ремонт АКПП, Шиномонтажи;ежедневно, 09:00–21:00;;;;;https://vk.com/rolfcompany;;;;;;271;5.0;117;55.591894;37.733556
1377483002;Аэрография на автомобилях ilnur.ru;Москва и Московская область;;Можайское ш., 2А, п. г. т. Большие Вязёмы;143050;;+7 (925) 514-50-20;5145020@mail.ru;http://ilnur.ru/;Автомобили / Автосервис, услуги, Культура и искусство / Живопись и художественные изделия;Автосервисы, Тюнинг, Художественные мастерские;ежедневно, 10:00–21:00;скидки на услуги льготным категориям, наличными, оплата картой, банковским переводом, безналичная;79255145020;;https://t.me/ILNUR_RU;https://vk.com/airbrushing_on_cars;;https://www.youtube.com/watch?list=PLeHJkL05_A0V7ud1mmboFoAS5YxAk0K5C&v=JEhwql93daI;;;;14;4.2;4;55.630369;37.008808
28791505869;Биби Сервис Про;Москва и Московская область;;Можайское ш., 7А, д. Малые Вязёмы;;;+7 (977) 307-27-27;glebbibi@mail.ru;http://bi-bi-pro-service.clients.site/;Автомобили / Автосервис, услуги;Автомойки, Автосервисы, Шиномонтажи;ежедневно, 09:00–21:00;постоплата, наличными, банковским переводом;79773072727;;;;;;;;;122;4.4;54;55.6406;37.056671
88498532005;Доктор Вольво;Москва и Московская область;;Дмитровское шоссе, 28/4;;;+7 (929) 951-29-48, +7 (995) 153-74-17;info@doctorvolvo.ru;https://doctorvolvo.ru/;Автомобили / Автосервис, услуги;Автосервисы;ежедневно, 10:00–19:00;наличными, оплата картой, банковским переводом, рассрочка, безналичная, QR-код, СБП, оплата кредитной картой, оформление кредита;79299512948;;https://t.me/drvolvo;;;;;;;77;4.7;32;56.050864;37.537498
6468321463;У Сервис+ Chery;Москва и Московская область;;Московская область, городской округ Подольск, Симферопольское шоссе, 30-й километр, 1, стр. 1;;+7 (495) 127-92-11;;customers@uservice.ru;https://www.moscow-chery.ru/?utm_campaign=card&utm_medium=spravochnik&utm_source=yandex, https://www.uservice.ru/chery/?utm_campaign=card&utm_medium=spravochnik&utm_source=yandex;Автомобили / Автосервис, услуги, Автомобили / Продажа;Автосалоны, Автосервисы, Продажа автомобилей с пробегом;ежедневно, 09:00–21:00;дисконтная система скидок, предоплата, наличными, оплата картой, банковским переводом, sms-платеж, рассрочка, безналичная, онлайн, QR-код, СБП, оплата кредитной картой, оформление кредита;;;;https://vk.com/chery_uservice;;https://www.youtube.com/channel/UC1zfWGTlxo09-MFuktrxzWw;;;;1370;5.0;492;55.49167;37.609651
1378710985;ГАЗ Мэйджор Трак центр;Москва и Московская область;;ул. Ленина, вл79, село Павловская Слобода;;+7 (499) 649-97-64;;hr@major-truck.ru, info@major-truck.ru;https://major-gaz.ru/?utm_medium=cpc&utm_source=яндекс_карты_газ, https://major-truck.ru/;Автомобили / Автосервис, услуги, Автомобили / Продажа, Производство и поставки / Машиностроение;Автосалоны, Автосервисы, Грузовая техника;"пн-пт 09:00–19:00; сб,вс 09:00–17:00";наличными, оплата картой, банковским переводом, безналичная;;;https://t.me/major_truck_center;https://vk.com/majortruckcenter;;https://www.youtube.com/channel/UCbsw-UsCpng3y38Aadxgznw;;;;312;4.7;74;55.812954;37.058143
88395842624;Big Auto;Москва и Московская область;;Промышленный пр., 20, д. Беляниново;;+7 (495) 777-90-10;;info@gazeli.org, perevozki-nedorogo@bk.ru;http://gazeli.org/sto/;Автомобили / Автосервис, услуги;Автосервисы;ежедневно, 10:00–18:00;наличными, оплата картой, банковским переводом, безналичная;;;;;;;;;;0;0.0;0;55.950771;37.6357
52276518320;ШинПРО;Москва и Московская область;;Быковское ш., 20/1, п. г. т. Малаховка;;;+7 (926) 817-27-17;support@shin-pro.ru;https://shin-pro.ru/;Автомобили / Автосервис, услуги, Автомобили / Запчасти, аксессуары;Шиномонтажи, Шины и диски;ежедневно, круглосуточно;;;;https://t.me/shinproru;;;;;;;339;5.0;209;55.627256;37.999022
88338490947;Roil;Москва и Московская область;;Московская область, городской округ Балашиха, Новомилетское шоссе;;8 (800) 700-95-57;+7 (968) 450-54-68, +7 (968) 921-74-08;marketroilpro@gmail.com;https://agmgrup.ru/, https://roil.pro/;Автомобили / Автосервис, услуги, Производство и поставки / Нефтегазовая промышленность;Смазочные материалы, Экспресс-пункты замены масла;ежедневно, 09:00–21:00;;;;https://t.me/roilpro;https://vk.com/roil.service;;;;;;67;5.0;56;55.715902;38.046658
87883357099;Коер;Москва и Московская область;;Фрегатная ул., 2, д. Заболотье;140102;;+7 (985) 303-27-13;auto-maga@list.ru, ermakov60@yandex.ru;http://www.ramkoer.ru/;Автомобили / Автосервис, услуги;Автоателье;пн-пт 08:00–17:00;наличными, СБП;79853032713;https://viber.click/79150490550;;http://vk.com/club137161757;;;;;;128;5.0;59;55.548125;38.200643
1018108458;Колесный центр;Москва и Московская область;;Рогачёвское ш., 41А, село Озерецкое;;;+7 (915) 496-30-00;89154963000@mail.ru;http://www.shina-vsem.ru/, http://www.шина-всем.рф/;Автомобили / Автосервис, услуги, Автомобили / Запчасти, аксессуары, Автомобили / Продажа;Автомагазины, Шиномонтажи, Шины и диски;ежедневно, 08:00–22:00;дисконтная система скидок, наличными, оплата картой, электронными деньгами, банковским переводом, QR-код;79154963000;;;;;;;;;1257;5.0;489;56.068243;37.390484
87873424498;AdBlue;Москва и Московская область;;Московская область, городской округ Солнечногорск, территориальное управление Пешковское;;;+7 (980) 079-65-14;oil-truck@mail.ru;;Автомобили / Автосервис, услуги, Автомобили / АЗС и стоянки, Производство и поставки / Нефтегазовая промышленность;АЗС, Смазочные материалы, Экспресс-пункты замены масла;ежедневно, круглосуточно;;;;;;;;;;;37;4.0;5;56.051354;37.137284
87660655971;АвтоСТАР;Москва и Московская область;;посёлок Строитель, 7Б;;+7 (49638) 2-39-11;+7 (903) 661-42-55;kriviigor@yandex.ru;http://mozhay-avto.ru/;Автомобили / Автосервис, услуги;Автосервисы;пн-сб 09:00–18:00;оплата картой, банковским переводом, СБП, наличными, оплата кредитной картой, безналичная, предоплата;;;;;;;;;;0;0.0;0;55.5003;36.062472
35771801574;DoctorLavr BMW;Москва и Московская область;;МКАД, 32-й километр, с3, посёлок Битца;142718;+7 (495) 320-06-22;;info@doctorlavr.com, lavr006@list.ru;https://doctorlavr.com/;Автомобили / Автосервис, услуги, Автомобили / Продажа;Автомагазины, Автосервисы;пн-сб 10:00–19:00;;74953200622;;https://t.me/+79859226003, https://t.me/drlavr_bmw;;;https://www.youtube.com/channel/UCvcwZl6xvoxnlAeV4YK2oWQ, https://www.youtube.com/channel/UCvcwZl6xvoxnlAeV4YK2oWQ?view_as=subscriber;;;;207;4.9;79;55.574175;37.607846
17728109813;Deikin Exhaust;Москва и Московская область;;;143026;;+7 (920) 896-60-60, +7 (920) 897-97-54;sales@deikin.com;http://www.deikin.com/;Автомобили / Автосервис, услуги, Производство и поставки / Машиностроение;Производство автозапчастей, Тюнинг;пн-пт 10:00–19:00;предоплата, наличными, оплата картой, электронными деньгами, банковским переводом;;;;https://vk.com/deikin_exhaust;;https://www.youtube.com/channel/UCjAty_69a0B3ezuODTfum4Q;;;;9;4.4;5;55.70885;37.384037
17734783734;Mcsd;Москва и Московская область;;МКАД, 51-й километр, вл2, Москва;;+7 (495) 120-13-31;+7 (925) 517-13-31, +7 (962) 975-57-75;mail@mcsd.su;https://mcsd.su/;Автомобили / Автосервис, услуги;Автосервисы, Шиномонтажи;ежедневно, 10:00–18:00;;79629755775;https://viber.click/79629755775;;;;;;;;461;5.0;180;55.689283;37.412022
87599933348;The Tire Disk Service;Москва и Московская область;;ул. Чехова, 25, п. г. т. Михнево;142840;;+7 (915) 226-37-59, +7 (933) 272-77-07;savin.akrem@gmail.com;https://busdiskservice.clients.site/;Автомобили / Автосервис, услуги;Шиномонтажи;ежедневно, 10:00–20:00;наличными, банковским переводом, безналичная, онлайн, СБП;;;https://t.me/79332727707;;;;;;;224;5.0;167;55.124315;37.96726
87553804336;Ремонт Гур;Москва и Московская область;;Московская область, Ленинский городской округ, посёлок Битца;;;+7 (977) 630-93-21;loras_macalister@mail.ru;https://gur.clients.site/;Автомобили / Автосервис, услуги, Производство и поставки / Гидравлика и пневматика;Ремонт гидравлического и пневматического оборудования, Ремонт грузовых автомобилей;"пн-пт 11:00–18:00; сб,вс 12:00–17:00";наличными, банковским переводом, безналичная;;;;;;;;;;19;4.7;10;55.574063;37.620387
73801960165;Шиномонтаж;Москва и Московская область;;д. Марьино, 3;;;+7 (993) 244-47-35;info@zel-kuzov.ru;https://shinomontazh-1636448289.clients.site/, https://zel-kuzov.ru/;Автомобили / Автосервис, услуги, Автомобили / Запчасти, аксессуары;Автомойки, Шиномонтажи, Шины и диски;;скидки на услуги льготным категориям, наличными, оплата картой, банковским переводом, рассрочка, безналичная, QR-код, СБП, оплата кредитной картой, оформление кредита;79919444735;https://viber.click/79919444735;https://t.me/79919444735;https://vk.com/public201195722;;;;;;290;4.8;128;56.018749;37.01254
87238057212;Сервисный центр Volvo Trucks;Москва и Московская область;;ул. Ленина, вл79, село Павловская Слобода;143581;+7 (499) 490-85-21;;hr@major-truck.ru;https://www.major-truck.ru/;Автомобили / Автосервис, услуги, Автомобили / Запчасти, аксессуары, Производство и поставки / Машиностроение;Автосервисы, Грузовая техника, Запчасти для спецтехники;ежедневно, 08:00–21:00;предоплата, постоплата, наличными, оплата картой, банковским переводом, безналичная;;;https://t.me/major_truck_center;https://vk.com/majortruckcenter;;https://www.youtube.com/channel/UCbsw-UsCpng3y38Aadxgznw;;;;146;4.4;28;55.813022;37.058689
6683168733;КарИнжиниринг;Москва и Московская область;;Западная ул., 33, п. г. т. Новоивановское;;+7 (495) 185-00-50, 8 (800) 775-74-85;;5451549@mail.ru;https://www.carengineering.ru/;Автомобили / Автосервис, услуги, Автомобили / Продажа, Бытовые услуги / Бытовые услуги;Детейлинг, Оклейка машин, Тюнинг;ежедневно, 10:00–19:00;оплата кредитной картой, СБП, наложенным платежом, безналичная, оплата картой, QR-код, наличными, онлайн, постоплата, банковским переводом, электронными деньгами, предоплата, бесконтактная оплата;79933501020;https://viber.click/79933501020;https://t.me/+79933501020;https://vk.com/carengineering;;http://www.youtube.com/channel/UCDxRut8VSQK4jJUqpd0t3bA;;;;382;5.0;269;55.709906;37.36414
1020244450;Saab Toyota - Сервис;Москва и Московская область;;Центральная ул., 1А, д. Гольёво;;+7 (495) 980-05-25;+7 (903) 190-40-90, +7 (915) 014-75-34;info@saab-tvn.ru;http://www.saab-tvn.ru/;Автомобили / Автосервис, услуги;Автосервисы;ежедневно, 09:00–21:00;предоплата, постоплата, наличными, оплата картой, банковским переводом, безналичная, оплата кредитной картой;;;;;;;;;;283;4.5;112;55.800727;37.306667
87149049339;BMW клуб;Москва и Московская область;;д. Борозда, квартал Архангелово, 77А;141663;+7 (495) 765-51-51;+7 (985) 765-51-51;bmw-workshop@mail.ru;https://bmw-klub.clients.site/;Автомобили / Автосервис, услуги, Автомобили / Продажа;Автомагазины, Автосервисы, Тюнинг;;предоплата, постоплата, наличными, оплата картой, электронными деньгами, банковским переводом, sms-платеж, безналичная, онлайн, СБП, оплата кредитной картой;79857655151;;;https://vk.com/bmw.club.klin;;;;;;35;4.9;17;56.329766;36.782871
6720933869;Rr_Drive;Москва и Московская область;;Островецкое ш., 3, д. Верея;;;+7 (929) 913-39-98, +7 (981) 689-00-60;rrdr1ve@yandex.ru;https://rr-drive.clients.site/;Автомобили / Автосервис, услуги, Производство и поставки / Сварочное оборудование;Автосервисы, Ремонт АКПП, Сварочные работы;ежедневно, 10:00–20:00;наличными, оплата картой, банковским переводом, безналичная;;;;https://vk.com/rr_drive;;;;;;99;4.8;49;55.621965;38.033396
86978021997;Прогресс;Москва и Московская область;;д. Апаринки, вл14;142715;;+7 (903) 753-57-78, +7 (985) 227-10-49;sprgrs@ya.ru;https://honda-progress.ru/;Автомобили / Автосервис, услуги, Автомобили / Запчасти, аксессуары;Автокондиционеры, Автосервисы, Шиномонтажи;ежедневно, 09:00–21:00;наличными;;;;;;;;;;366;5.0;182;55.573517;37.759989
6753448745;Автолюкс;Москва и Московская область;;д. Коледино, 30А;;+7 (495) 136-26-42;;tc@avtoluxservice.ru;https://avtoluxservice.ru/;Автомобили / Автосервис, услуги, Производство и поставки / Машиностроение;Автомобильные прицепы, Автосервисы, Грузовая техника;ежедневно, 09:00–18:00;предоплата, постоплата, безналичная;;;;;;;;;;306;4.9;77;55.381905;37.583959
86346712574;Автосервис;Москва и Московская область;;;;;+7 (905) 525-55-00, +7 (926) 895-88-28;kuziahouse1@yandex.ru;http://adonice.atlana.ru/;Автомобили / Автосервис, услуги;Автосервисы, Шиномонтажи;пн-сб 09:00–20:00;;;;;;;;;;;84;4.6;26;55.724255;37.952329
86339091276;Форд Транзит Сервис Rem Box;Москва и Московская область;;Можайское ш., 159, корп. 10, рабочий посёлок Новоивановское;;;+7 (916) 003-67-76;info@rb-ford.ru;http://rb-ford.ru/;Автомобили / Автосервис, услуги, Автомобили / Продажа, Производство и поставки / Машиностроение;Автомагазины, Автосервисы, Ремонт двигателей;"пн-пт 10:00–20:00; сб,вс 10:00–19:00";скидки на услуги льготным категориям, предоплата, постоплата, наличными, оплата картой, электронными деньгами, банковским переводом, sms-платеж, наложенным платежом, рассрочка, безналичная, онлайн, QR-код, СБП;79160036776;;https://t.me/Drist23;https://vk.com/public212711466;;https://www.youtube.com/channel/UCeUUMVTAOLQN5bA0Hf5NShQ;;;;205;5.0;135;55.711131;37.384916
1386434897;Тюнинг Мастер;Москва и Московская область;;МКАД, 55-й километр, с31, Москва;;+7 (495) 749-00-09;+7 (903) 549-00-09;tuningmaster@bk.ru;http://tuningmaster.su/, https://tjuning-master.clients.site/;Автомобили / Автосервис, услуги, Автомобили / Запчасти, аксессуары, Автомобили / Продажа;Автоаксессуары, Автомагазины, Тюнинг;ежедневно, 09:00–19:00;скидки на услуги льготным категориям, дисконтная система скидок, предоплата, наличными, оплата картой, электронными деньгами, банковским переводом, sms-платеж, наложенным платежом, безналичная, онлайн, QR-код, СБП, оплата кредитной картой;79035490009;;https://t.me/tuningmastershop;https://vk.com/tuning_m;https://ok.ru/profile/558601642601;http://youtube.com/channel/UCuRRKOoUdwxXJJu9E79AhOg;;;;169;4.9;105;55.724198;37.377744
24057131430;ТракСпейс;Москва и Московская область;;ул. Городок-17, вл11с3, п. г. т. Большие Вязёмы;143050;+7 (495) 369-00-14;+7 (903) 005-51-36;info@truckspace.ru;http://truckspace.ru/;Автомобили / Автосервис, услуги;Автосервисы, Автоэвакуаторы, Кузовной ремонт;ежедневно, 09:00–20:00;СБП, оплата картой, наличными, предоплата, безналичная, банковским переводом;79030055136;https://viber.click/+7(903)-005-51-36;https://t.me/+7(903)-005-51-36;;;;;;;139;4.7;40;55.640084;37.008415
86288003466;Оранж Гараж;Москва и Московская область;;Московская область, городской округ Красногорск, Пятницкое шоссе, 7-й километр, вл262;143442;;+7 (926) 227-92-73;apelsinrazbor@mail.ru;https://razborange.ru/;Автомобили / Автосервис, услуги;Автосервисы;"пн-пт 10:00–19:00; сб 11:00–19:00";постоплата, наличными, банковским переводом;;;;;;;;;;129;5.0;78;55.875733;37.335549
1022862837;ТК Рус-Бас;Москва и Московская область;;Домодедовское ш., 20Б, посёлок Сельхозтехника;;+7 (495) 984-53-50;+7 (985) 766-88-36;bal-head@tkrus.ru, bal-priemka@tkrus.ru, doronin_sa@tkrus.ru, doronin@tkrus.ru, kolmykov_vm@tkrus.ru, office@tkrus.ru;http://tkrus.ru/;Автомобили / Автосервис, услуги, Строительство и недвижимость / Инженерные системы;Автосервисы, Ремонт кондиционеров;ежедневно, 08:00–20:00;;79857668836;https://viber.click/79857668836;;;;;;;;131;4.5;38;55.434807;37.60315
1387230320;Реноме Авто;Москва и Московская область;;Садовая ул., 38, село Павловская Слобода;;+7 (495) 664-90-54, +7 (495) 992-38-46;+7 (926) 204-21-98;renomeavto@mail.ru;http://www.renomeavto.ru/;Автомобили / Автосервис, услуги, Автомобили / Продажа;Автомагазины, Автосервисы, Автоэвакуаторы;ежедневно, 09:00–20:00;наличными, оплата картой;;;;https://vk.com/renome_avto;;https://www.youtube.com/channel/UCNgHRW45A1hCxmYGLLwih1w;;;;658;4.7;238;55.812131;37.076868
85908189789;ИТС, DongFeng;Москва и Московская область;;рабочий посёлок Калининец, территория Промышленная, с1;;+7 (495) 236-95-00;;info@tp-trucks.ru;http://tp-dongfeng.ru/;Автомобили / Автосервис, услуги, Автомобили / Продажа, Производство и поставки / Машиностроение;Автосалоны, Автосервисы, Грузовая техника;ежедневно, 09:00–21:00;наличными, банковским переводом;;;https://t.me/tptrucks;;;;;;;25;3.9;5;55.531202;36.981368
6837332418;Грузовая автомойка;Москва и Московская область;;Советская ул., 1А, Старая Купавна;;;+7 (985) 129-99-49;info@dtts.ru, info@repair-trailers.ru;https://repair-trailers.ru/;Автомобили / Автосервис, услуги;Грузовые автомойки, Шиномонтажи;ежедневно, 08:00–19:00;;79851298800;;;;;;;;;46;4.4;7;55.81045;38.200163
17845899491;Алато;Москва и Московская область;;Московская область, Домодедово, микрорайон Белые Столбы;;;+7 (926) 203-95-14, +7 (926) 792-61-76, +7 (926) 792-74-80;info@alatoshina.ru;https://alatoshina.ru/;Автомобили / Автосервис, услуги, Автомобили / Запчасти, аксессуары;Моторные масла, Шиномонтажи, Шины и диски;ежедневно, круглосуточно;предоплата, постоплата, QR-код, оплата картой, безналичная, наличными;;;;;;;;;;519;4.8;211;55.336583;37.790345
1221500061;Сити Каширка Volkswagen;Москва и Московская область;;МКАД, 23-й километр, вл3, Москва;142717;+7 (495) 126-29-21;;reception-vw@autocentercity.ru;https://kashirka.avto-city.ru/;Автомобили / Автосервис, услуги, Автомобили / Продажа;Автосалоны, Автосервисы, Пункты техосмотра;"пн-сб 08:00–21:00; вс 08:00–20:00";дисконтная система скидок, предоплата, постоплата, наличными, оплата картой, банковским переводом;79997684519;;https://t.me/AvtoCity_official;https://vk.com/citykashirka;;;;;;2190;4.7;763;55.597399;37.744819
1025461933;Каширка 23;Москва и Московская область;;;;;+7 (903) 777-71-64, +7 (915) 138-54-43, +7 (925) 181-29-29, +7 (985) 922-64-24;info@avtoservis-kashirka.ru;http://avtoservis-kashirka.ru/;Автомобили / Автосервис, услуги, Строительство и недвижимость / Стройматериалы, Товары для дома и дачи / Хозтовары, бытовая химия, прочее;Автосервисы, Магазины хозтоваров, Строительные магазины;"пн-пт 10:00–21:00; сб,вс 11:00–20:00";;89037777164;https://viber.click/89037777164;;;;;;;;103;3.9;11;55.584263;37.7411
85449567750;Gr-service;Москва и Московская область;;2-я Советская ул., 24А, село Жаворонки;143020;;+7 (916) 030-31-11, +7 (918) 030-31-11;info@dra.ru;;Автомобили / Автосервис, услуги, Бытовые услуги / Бытовые услуги;Автосервисы, Диагностика автомобилей, Шиномонтажи;ежедневно, 09:00–21:00;наличными, оплата картой, банковским переводом, безналичная;79160303111;https://viber.click/79160303111;;;;;;;;72;4.5;40;55.64574;37.099114
32370811478;Маслофф;Москва и Московская область;;посёлок Случайный, 1;;+7 (499) 229-73-74;+7 (916) 525-47-17;info@masloff.ru;https://masloff.ru/service/177243;Автомобили / Автосервис, услуги, Автомобили / Запчасти, аксессуары;Автосервисы, Автохимия, Экспресс-пункты замены масла;ежедневно, 09:00–21:00;наличными, оплата картой;;;https://t.me/masloffru;https://vk.com/masloffru;;;;;;432;4.9;218;55.758135;38.437237
6944420220;Major Lynk&Co Новорижский;Москва и Московская область;;Московская область, городской округ Красногорск, М-9 Балтия, 25-й километр, вл24;;;;nr.major-moskvich@ma.ru;;Автомобили / Автосервис, услуги, Автомобили / Продажа;Автосалоны, Автосервисы;ежедневно, 08:00–21:00;;;;;;;;;;;8;4.2;3;55.789491;37.254301
1025875675;Орех;Москва и Московская область;;Московская область, городской округ Балашиха, улица Станция Стройка, 5, стр. 1;;+7 (495) 025-42-22;+7 (915) 091-80-94;falchenko@opex.ru, service@opex.ru, ssa@opex.ru, your@mail.com;https://service.opex.ru/;Автомобили / Автосервис, услуги;Автосервисы, Ремонт грузовых автомобилей;ежедневно, 08:30–20:30;предоплата, наличными, оплата картой, банковским переводом, безналичная;;;https://t.me/opex_truck_parts;https://vk.com/zao.opex;https://www.ok.ru/group/55077894226101;;;;;877;4.6;245;55.781378;37.858949
51631172067;СпецАвтоРегион;Москва и Московская область;;Озёрная ул., 6, посёлок Зверосовхоза;;;+7 (910) 460-34-72;alexei.polfinov@yandex.ru;https://sautoregion.ru/;Автомобили / Автосервис, услуги;Автосервисы;"пн-пт 09:00–20:00; сб 09:00–17:00";;79104603472;;;;;;;;;40;4.9;16;56.048096;37.980382
73715954152;КАМАЗ Мэйджор Трак центр;Москва и Московская область;;ул. Ленина, вл79, село Павловская Слобода;143581;+7 (499) 490-85-21;;hr@major-truck.ru, post@major-truck.ru;https://major-truck.ru/;Автомобили / Автосервис, услуги, Автомобили / Запчасти, аксессуары, Производство и поставки / Машиностроение;Автосервисы, Грузовая техника, Запчасти для грузовых автомобилей;ежедневно, 08:00–21:00;наличными, оплата картой, банковским переводом, безналичная;;;https://t.me/major_truck_center;https://vk.com/majortruckcenter;;https://www.youtube.com/@majortruckcenter7900;;;;33;4.6;2;55.812979;37.058017
51442257977;Maxi-Tuning;Москва и Московская область;;;142032;;+7 (915) 000-32-90, +7 (916) 634-49-40, +7 (963) 759-59-08;max.tuning@mail.ru;http://maxi-tuning.net/;Автомобили / Автосервис, услуги;Автоателье, Кузовной ремонт, Тонировка авто;пн-сб 09:00–19:00;;;;;;;;;;;64;4.4;20;55.429731;37.714915
73515676405;Рем-кара;Москва и Московская область;;д. Чашниково, 54;;;+7 (925) 066-57-68;admin@rem-cara.ru, rem-cara@mail.ru;http://rem-cara.ru/;Автомобили / Автосервис, услуги, Производство и поставки / Машиностроение;Подъёмное оборудование, Ремонт спецтехники, Спецтехника;ежедневно, 09:00–18:00;безналичная;79250665768;;https://t.me/79153905324;https://vk.com/rem_cara;;;;;;7;4.0;6;56.029106;37.168044
60795805170;Автосервис;Москва и Московская область;;;141580;+7 (499) 112-42-67, +7 (499) 348-85-39;+7 (926) 956-19-65;info@lrsever.ru;https://remont-jaguar.ru/;Автомобили / Автосервис, услуги;Автосервисы;;;;;;https://vk.com/landroverremont;;;;;;6;4.2;2;55.970715;37.317926
85311713077;Thor tuning;Москва и Московская область;;Можайское ш., вл167, рабочий посёлок Новоивановское;;+7 (495) 133-76-69, +7 (495) 133-85-89, +7 (495) 133-92-26;;service@thor-tuning.com;http://thor-tuning.com/;Автомобили / Автосервис, услуги, Автомобили / Запчасти, аксессуары;Автоакустика, Автосервисы;пн-пт 10:00–19:00;;84951339226;;https://t.me/THOR_tuning_bot;https://vk.com/thor_tuning;;;;https://rutube.ru/channel/41388818/;;116;4.9;64;55.708881;37.384028
1027955476;АвтоВинил;Москва и Московская область;;Кленовая ул., 2, д. Тёрновка;;;+7 (926) 555-80-63;nikita_okorokov@mail.ru;http://vinil-nf.ru/;Автомобили / Автосервис, услуги, Строительство и недвижимость / Стройматериалы;Защитные плёнки, Тонировка авто;ежедневно, 10:00–17:00, перерыв 12:30–14:00;;;;;https://vk.com/club32237464;;;;;;17;3.3;6;55.397853;36.703977
29810766628;Ohlins Россия;Москва и Московская область;;д. Горетовка, 18Б;;+7 (495) 762-76-94;+7 (926) 518-95-25, +7 (985) 762-76-94;ohlinsrussia@gmail.com;http://www.ohlinsrussia.ru/;Автомобили / Автосервис, услуги;Тюнинг;пн-пт 09:00–18:00;;79857627694;;;;;;;;;30;4.2;7;55.960029;37.109342
73508025704;АвтоЦем;Москва и Московская область;;;143430;+7 (495) 502-38-02;;5075807@mail.ru;http://www.avtocem.ru/;Автомобили / Автосервис, услуги, Автомобили / Продажа, Производство и поставки / Изделия для производств;Автомагазины, Автосервисы, Рукава и шланги;пн-пт 09:00–17:00;;;;;;;;;;;8;4.2;4;55.842811;37.205875
73476125364;ГСК Кунцево;Москва и Московская область;;Московская область, Одинцовский городской округ, рабочий посёлок Заречье;;;+7 (925) 171-58-72;gskkuncevo@gmail.com, gskkuncevo@yandex.ru;http://gskkuncevo.ru/;Автомобили / Автосервис, услуги, Автомобили / АЗС и стоянки;Автопарковки, Гаражные кооперативы, Кузовной ремонт;ежедневно, круглосуточно;;;;;;;;;;;11;4.0;6;55.67964;37.389294
17864648474;Автосервис;Москва и Московская область;;Московская область, Одинцовский городской округ, территориальное управление Захаровское;;;+7 (915) 431-92-05;dima_ceban2004@mail.ru;https://gruzovojlegkovoj-shinomontazh.clients.site/;Автомобили / Автосервис, услуги, Производство и поставки / Оборудование для АЗС и автосервиса;Автосервисное оборудование, Автосервисы, Ремонт грузовых автомобилей;"пн-пт 08:00–19:00; сб,вс 09:00–15:00";наличными, банковским переводом;;;;;;;;;;0;0.0;0;55.70419;36.84453
1391006645;Ver Service;Москва и Московская область;;д. Жирово, 165;;;+7 (906) 725-80-60;info@trucksgarage.ru;https://trucksgarage.ru/;Автомобили / Автосервис, услуги, Производство и поставки / Машиностроение;Автосервисы, Ремонт АКПП, Ремонт двигателей;ежедневно, 10:00–20:00;дисконтная система скидок, предоплата, постоплата, наличными, оплата картой, банковским переводом, безналичная, оплата кредитной картой;;;;https://vk.com/zapgar;;;;;;46;4.2;18;55.59408;38.519172
7000521601;Roil;Москва и Московская область;;д. Лешково, 181;;;;info@roil.msk.ru;;Автомобили / Автосервис, услуги, Автомобили / Запчасти, аксессуары, Производство и поставки / Нефтегазовая промышленность;Автокондиционеры, Смазочные материалы, Экспресс-пункты замены масла;;наличными, оплата картой, скидки на услуги льготным категориям;;;;;;;;;;64;5.0;48;55.811933;37.11723
1391553445;ETK-сервис;Москва и Московская область;;Московская область, городской округ Солнечногорск, посёлок Майдарово;;;+7 (925) 160-23-52, +7 (929) 611-18-75;info@etk-shop.ru;;Автомобили / Автосервис, услуги;Автосервисы, Ремонт грузовых автомобилей;ежедневно, 09:00–21:00;;79296111875;;;;;https://www.youtube.com/channel/UCYykmkAj-OVpwyD_5sRJsZw;;;;142;4.8;51;56.093674;37.152705
39717502328;ГБО-Авто;Москва и Московская область;;Московская область, Богородский городской округ, Горьковское шоссе, 53-й километр, 10;142410;;+7 (916) 024-33-94;avtoservis-ngs@mail.ru, ivanov@mail.ru;http://gboauto.ru/;Автомобили / Автосервис, услуги, Производство и поставки / Нефтегазовая промышленность;Газовое оборудование, Переоборудование авто, Установка ГБО;"пн-пт 09:00–18:00; сб 09:00–15:00";постоплата, наличными, оплата картой, электронными деньгами, банковским переводом, sms-платеж;;;;;;;;;;182;5.0;87;55.829977;38.411484
62359296173;Wiki-Motors;Москва и Московская область;;Можайское ш., 168, рабочий посёлок Новоивановское;;+7 (495) 235-70-70;+7 (926) 775-70-70;info@wiki-motors.ru;https://wiki-motors.ru/;Автомобили / Автосервис, услуги;Автосервисы, Ремонт турбин;пн-пт 10:00–20:00;наличными, банковским переводом, безналичная, оплата кредитной картой, QR-код, оплата картой;79267757070;;https://t.me/wiki_motors_moscow;;;;;;;189;5.0;101;55.708895;37.385126
85288885509;Лукомойре;Москва и Московская область;;д. Глазово, с3А;;;+7 (926) 930-50-72, +7 (930) 665-56-76, +7 (936) 283-81-85;lukomorje_msk@mail.ru;https://lukomoire.ru/;Автомобили / Автосервис, услуги, Автомобили / Продажа;Автомойки, Детейлинг;ежедневно, 07:00–00:00;наличными, оплата картой, безналичная, QR-код;79306655676;https://viber.click/79306655676;https://t.me/lukomoire;https://vk.com/lukomorje_msk;;;;;;253;5.0;189;56.088408;37.365649
85250475353;Wey центр Люберцы;Москва и Московская область;;Новорязанское шоссе, 23-й километр, 15, рабочий посёлок Томилино;140011;+7 (495) 126-00-57;;info.tank@autoprodix.ru, info@alarm-motors.ru, info@avilon-tank.ru, info@avtomir.ru, info@avtoruss-tank.ru, info@olimpneva.ru, info@tank-avangard.ru, tank_vnukovo@ascgroup.ru, tank@ton-auto.ru, tank52@agatgroup.com;https://gwm-wey-lb.ru/, https://wey-lb.ru/;Автомобили / Автосервис, услуги, Автомобили / Продажа;Автосалоны, Автосервисы;ежедневно, 09:00–21:00;;;;https://t.me/tank_lubertsy;;;;;;;17;4.6;13;55.654719;37.902902
85019000679;Протон-М;Москва и Московская область;;;;;+7 (925) 502-44-24;479446378229@prm.ru;https://proton-m-tsentralnaja-ulitsa.clients.site/;Автомобили / Автосервис, услуги, Автомобили / Запчасти, аксессуары;Автокондиционеры, Автостёкла, Шиномонтажи;ежедневно, круглосуточно;;;;;;;;;;;0;0.0;0;55.965577;37.84278
84952917103;РусКомАвто;Москва и Московская область;;Московская область, городской округ Мытищи, деревня Ульянково;;;+7 (903) 163-70-00;rka@rka.su, rkae@rka.su;https://rka.su/;Автомобили / Автосервис, услуги;Автосервисы;ежедневно, 09:00–18:00;оплата картой, банковским переводом, наличными;;;;;;;;;;3;4.1;1;56.001534;37.711258
84798513661;Custom Garage;Москва и Московская область;;Староандреевская ул., 53, стр. 1, п. г. т. Андреевка;141551;;+7 (926) 876-04-14, +7 (999) 966-59-66;castomgarage@mail.ru;https://custom-garage-staroandreevskaja-ulitsa.clients.site/;Автомобили / Автосервис, услуги;Кузовной ремонт, Покраска автомобилей;вт-вс 09:00–20:00;постоплата, наличными, электронными деньгами, банковским переводом, sms-платеж, онлайн, QR-код, СБП;79999665966;;https://t.me/CUSTOMGARAGE1;https://vk.com/customgarage77?from=groups;;;;;;64;5.0;60;55.985068;37.135691
1392886873;Offroad-Master;Москва и Московская область;;ул. Ленина, 28, село Ильинское;143421;;+7 (926) 522-74-84, +7 (926) 911-79-89;info@offroad-master.su;http://www.offroad-master.su/;Автомобили / Автосервис, услуги, Строительство и недвижимость / Стройматериалы;Автосервисы, Защитные плёнки, Тюнинг;пн-пт 10:00–18:00;;;;;;;;;;;9;3.6;5;55.760705;37.242686
1394331566;Альфа авто;Москва и Московская область;;МКАД, 23-й километр, внешняя сторона, вл3, Москва;;+7 (495) 972-09-14, +7 (495) 972-12-58, +7 (495) 973-29-54, +7 (495) 978-12-58, +7 (498) 657-81-99, +7 (498) 657-83-66, +7 (499) 553-80-89;;info@alpha-avto.ru;http://www.alpha-avto.ru/;Автомобили / Автосервис, услуги, Автомобили / Продажа, Производство и поставки / Машиностроение;Автомагазины, Производство автозапчастей, Шиномонтажи;"пн-пт 09:00–20:00; сб 09:00–18:00; вс 09:00–17:00";наличными, оплата картой, безналичная;;;;;;;;;;222;4.3;56;55.5955;37.739206
84680161982;Трейд центр;Москва и Московская область;;ул. Белякова, 1Б, корп. 6, Балашиха;143907;+7 (499) 719-79-63;;mail@metlom.info;https://metlom.info/;Автомобили / Автосервис, услуги, Бытовые услуги / Бытовые услуги, Производство и поставки / Отходы, вторсырье;Вывоз мусора, Приём и скупка металлолома, Ремонт грузовых автомобилей;ежедневно, 09:00–20:00;банковским переводом, наличными;;;;;;;;;;23;4.9;18;55.807085;37.968428
109473411843;Хайп винил;Москва и Московская область;;Алабушевская ул., 2/3, п. г. т. Андреевка;;;+7 (916) 889-79-79;metosmt@yandex.ru;https://zelokleyka.ru/;Автомобили / Автосервис, услуги, Автомобили / Продажа;Детейлинг, Тюнинг;пн-сб 10:00–20:00;;79168897979;;;;;;;;;43;4.3;21;55.991032;37.142732
84525347983;PSshina;Москва и Московская область;;д. Гребнево, 46, стр. 1;;;+7 (929) 557-64-60, +7 (965) 229-68-74;info@ps-shina.ru;http://ps-shina.ru/;Автомобили / Автосервис, услуги, Автомобили / Запчасти, аксессуары;Шиномонтажи, Шины и диски;ежедневно, 08:00–20:00;наличными, оплата картой, банковским переводом;;;;;;;;;;117;4.8;63;55.965353;38.080723
39417050684;Джаст-Винил;Москва и Московская область;;д. Ближние Прудищи, вл1с1;142715;;+7 (925) 009-37-77, +7 (977) 430-43-33;just_vinyl@mail.ru;https://just-vinyl.ru/;Автомобили / Автосервис, услуги, Строительство и недвижимость / Стройматериалы;Защитные плёнки, Тонировка авто, Тюнинг;ежедневно, 09:00–19:00;наличными, оплата картой, банковским переводом;79250093777;;;https://vk.com/public179240713;;;;;;86;5.0;71;55.576652;37.695935
73016722623;Асатура - тюнинг-ателье;Москва и Московская область;;п. г. т. Марусино, территория Промзона Зенино, 10, стр. 2;;+7 (495) 885-82-62;;zakaz@asatura.ru;http://asatura.ru/;Автомобили / Автосервис, услуги;Автоателье, Кузовной ремонт, Тюнинг;вт-сб 10:00–20:00;наличными, оплата картой, банковским переводом, рассрочка, безналичная, онлайн;79262787685;;https://t.me/asatura_tuning;https://vk.com/asatura;;https://www.youtube.com/channel/UC4dm7bcVC56miQl_DT2GXSg;;;;286;5.0;132;55.703449;37.973037
1397119379;Автодин;Москва и Московская область;;п. г. т. Ржавки, 2-й микрорайон, с14;;+7 (495) 159-01-47;;info@avtodin.ru;https://avtodin.ru/?utm_campaign=avtodin&utm_medium=website&utm_source=map_yandex;Автомобили / Автосервис, услуги, Автомобили / Продажа;Автосалоны, Автосервисы, Продажа автомобилей с пробегом;ежедневно, 08:00–22:00;дисконтная система скидок, предоплата, наличными, оплата картой, sms-платеж, рассрочка, безналичная, онлайн, QR-код, оплата кредитной картой, оформление кредита;;;https://t.me/avtodin_zelenograd;https://vk.com/avtodin_zel;;;;;;2298;4.9;1077;55.997278;37.252026
84487148797;Разбор Nissan X-Trail;Москва и Московская область;;д. Малые Вязёмы, 8Р;;;+7 (905) 793-30-46;info@autorazborka-nissan.ru;https://autorazborka-nissan.ru/;Автомобили / Автосервис, услуги, Автомобили / Запчасти, аксессуары, Автомобили / Продажа;Автомагазины, Авторазборы, Автосервисы;пн-пт 11:00–18:00;;;;;https://vk.com/razborka_nissan_x_trail;;;;;;43;4.5;20;55.630243;37.011686
84265710927;АвтоЭвак+;Москва и Московская область;;;140473;;+7 (965) 156-50-71;a.petrov777@yandex.ru, info@buksirus.ru;https://buksirus.ru/, https://buksirus.ru/evakuator_egorevsk;Автомобили / Автосервис, услуги;Автоэвакуаторы;ежедневно, круглосуточно;;79651565071;https://viber.click/79651565071;;;;;;;;0;0.0;0;55.205371;38.611351
1035185992;ГОС-Тюнинг;Москва и Московская область;;Вокзальная ул., 21, стр. 19, д. Павловское;;+7 (495) 725-87-36, +7 (495) 725-87-39;+7 (968) 508-50-67;info@gos-tuning.ru;http://jivo.chat/P1B90tLzQ1, https://www.gos-tuning.ru/;Автомобили / Автосервис, услуги, Автомобили / Запчасти, аксессуары;Автосервисы, Автоэмали, Кузовной ремонт;"пн-пт 10:00–19:00; сб,вс 10:00–16:00";предоплата, постоплата, наличными, оплата картой, банковским переводом, безналичная, онлайн, СБП;79685085067;;https://t.me/gos_tuning;https://vk.com/gos_tuning;;https://www.youtube.com/@GOSTuningOfficial;;;;240;5.0;100;55.487834;37.725842
39326690266;Shopautozap;Москва и Московская область;;МКАД, 32-й километр, с1, Москва;;+7 (499) 647-74-95;+7 (926) 858-05-36, +7 (967) 278-34-34;info@autokarambol.ru;http://www.autokarambol.ru/;Автомобили / Автосервис, услуги;Автосервисы, Ремонт турбин, Экспресс-пункты замены масла;"вт-пт 09:00–19:00; сб 09:00–18:00";дисконтная система скидок, наличными, оплата картой, банковским переводом, безналичная, онлайн;;;;;;;;;;14;4.4;12;55.573912;37.61837
83959868605;Хино Мэйджор;Москва и Московская область;;ул. Ленина, вл79, село Павловская Слобода;143581;+7 (499) 490-85-21;;hr@major-truck.ru, post@major-truck.ru;https://major-truck.ru/;Автомобили / Автосервис, услуги, Автомобили / Запчасти, аксессуары, Производство и поставки / Машиностроение;Автосервисы, Грузовая техника, Запчасти для спецтехники;ежедневно, 08:00–21:00;наличными, оплата картой, банковским переводом, безналичная, онлайн;;;https://t.me/major_truck_center;https://vk.com/majortruckcenter;;https://www.youtube.com/channel/UCbsw-UsCpng3y38Aadxgznw;;;;14;4.3;5;55.812976;37.058927
32194259075;Трак Партс Foton;Москва и Московская область;;п. г. т. Калининец, территория Промышленная, с1;;+7 (495) 236-81-00;;info@tp-trucks.ru;https://foton-tp.ru/;Автомобили / Автосервис, услуги, Производство и поставки / Машиностроение;Автосервисы, Грузовая техника;ежедневно, 09:00–21:00;предоплата, наличными, банковским переводом, безналичная;;;https://t.me/tptrucks;;;;;;;67;4.4;21;55.531564;36.981676
1035538396;Рем-Кар;Москва и Московская область;;;;+7 (495) 220-39-36;+7 (925) 303-50-01, +7 (985) 220-78-08;texniss@mail.ru;http://www.rem-car.ru/;Автомобили / Автосервис, услуги, Автомобили / Продажа;Автомагазины, Автосервисы;пн-пт 09:00–19:00;;79852203936;https://viber.click/79852203936;;;;;;;;96;4.6;45;55.391183;37.552617
83863248618;Китайские грузовики;Москва и Московская область;;;142033;+7 (495) 502-49-49;+7 (926) 205-18-07, +7 (926) 403-89-99, +7 (929) 916-88-64;kg99@list.ru;http://kg99.ru/;Автомобили / Автосервис, услуги, Автомобили / Продажа;Автомагазины, Автосалоны, Автосервисы;ежедневно, 09:00–18:00;предоплата, наличными, банковским переводом;;;;https://vk.com/chinafaw;;;;;;60;4.0;11;55.342548;37.90582
1035666128;Vsm Service;Москва и Московская область;;ул. Барышиха, 57В, Москва;143442;;+7 (909) 902-22-38, +7 (964) 503-54-54;support@vsm-service.ru;http://vsm-service.ru/;Автомобили / Автосервис, услуги;Автосервисы, Ремонт стартеров и генераторов;"пн-пт 09:00–20:00; сб,вс 10:00–18:00";наличными, банковским переводом;79645035454;;;;;;;;;176;4.4;84;55.861132;37.343548
83757138740;Промтехавто;Москва и Московская область;;Боткинская ул., 33, стр. 4, микрорайон Клязьма, Пушкино;;;+7 (977) 124-99-69;info@promtechauto.ru, sales@promtechauto.ru, vasb@cebzgrpunhgb.eh;https://promtechauto.ru/;Автомобили / Автосервис, услуги;Ремонт грузовых автомобилей;пн-пт 09:00–17:30;;;;;;;;;;;0;0.0;0;55.967496;37.837615
30193533528;Шиномонтаж Автокондиционеры;Москва и Московская область;;Красковское ш., 1А, стр. 1, рабочий посёлок Малаховка;;;+7 (977) 610-77-81;zmei-01@mail.ru;https://shinomontazh-avtokonditsionery.clients.site/;Автомобили / Автосервис, услуги, Автомобили / Запчасти, аксессуары;Автокондиционеры, Автосервисы, Шиномонтажи;ежедневно, 09:00–21:00;предоплата, наличными, оплата картой, электронными деньгами, банковским переводом, безналичная, онлайн;79267039565;https://viber.click/79267039565;;;;;;;;73;4.7;37;55.646384;38.004191
7233040643;Стора;Москва и Московская область;;Московская ул., 12А, село Немчиновка;;;+7 (929) 508-11-42, +7 (967) 014-23-14;stora.remont@yandex.ru;https://stora-remont.ru/;Автомобили / Автосервис, услуги, Производство и поставки / Машиностроение;Автосервисы, Кузовной ремонт, Ремонт двигателей;ежедневно, 09:00–19:00;предоплата, постоплата, наличными, онлайн, СБП;;;;;;;;;;145;4.8;71;55.722721;37.375515
83561720068;Fit Service;Москва и Московская область;;Крымская ул., 33/1, п. г. т. Боброво;;+7 (499) 270-16-12;;a.laytarenko@fitauto.ru, fleet@fitauto.ru, iurkov.nikita@fitauto.ru, pr@fitauto.ru, skkr@fitauto.ru, vyacheslav.rakov@fitauto.ru;https://bobrovo.fitauto.ru/;Автомобили / Автосервис, услуги, Автомобили / Продажа;Автомагазины, Автосервисы;ежедневно, 09:00–21:00;;;;;https://vk.com/fit_service;;;;;;343;4.6;232;55.527917;37.622163
83002002936;Mazda Parts Moscow;Москва и Московская область;;;142031;;+7 (926) 908-63-66;japan-parts.moscow@mail.ru;https://japanpartsmsk.ru/;Автомобили / Автосервис, услуги, Автомобили / Запчасти, аксессуары;Авторазборы, Автосервисы;ежедневно, 10:00–19:00;;;;;;https://ok.ru/group/55853677477891;;;;;37;4.2;7;55.510843;37.833617
39299840045;Драгон;Москва и Московская область;;;;;+7 (926) 686-43-78;unnicanri3900@e1.ru;https://dragon-1689767691.clients.site/;Автомобили / Автосервис, услуги, Автомобили / Запчасти, аксессуары;Автокондиционеры, Автостёкла, Шиномонтажи;ежедневно, круглосуточно;дисконтная система скидок, предоплата, постоплата, наличными, оплата картой, электронными деньгами, банковским переводом, рассрочка, безналичная, онлайн, СБП, оплата кредитной картой;;;;https://vk.com/club221668468;;;;;;0;0.0;1;55.719363;37.147897
82823179849;Веларт Авто;Москва и Московская область;;Можайское ш., вл165Б, Москва;;+7 (495) 540-42-24;+7 (968) 763-33-63;banme@mail.ru, spam@example.com, velart@vel-art.ru;https://vel-art.ru/?utm_campaign=site&utm_medium=org&utm_source=yamaps;Автомобили / Автосервис, услуги, Бытовые услуги / Бытовые услуги;Автоателье, Оклейка машин, Тюнинг;ежедневно, 10:00–20:00;дисконтная система скидок, предоплата, постоплата, наличными, оплата картой, банковским переводом, безналичная, онлайн;79687633363;;https://t.me/velart_auto;;;https://youtube.com/channel/UCH7tTIsscM0raTq3Zhzp8hw;;;;123;5.0;66;55.708892;37.38194
82197217928;Ultravihlop;Москва и Московская область;;Можайское ш., 159, корп. 9, рабочий посёлок Новоивановское;143026;+7 (495) 023-61-86, +7 (495) 227-81-55;;pro.vihlop@gmail.com;http://pro-vihlop.ru/;Автомобили / Автосервис, услуги, Производство и поставки / Сварочное оборудование;Автосервисы, Сварочные работы, Тюнинг;ежедневно, 10:00–20:00;дисконтная система скидок, постоплата, наличными, оплата картой, банковским переводом, безналичная;;;;http://vk.com/pro.vihlop;;;;;;9;4.3;5;55.711373;37.38428
1037142907;Системы Автобезопасности;Москва и Московская область;;ул. Барышиха, 57В, Москва;;+7 (495) 585-36-07;+7 (901) 222-87-07, +7 (925) 585-36-07, +7 (925) 585-87-07;system.ab@mail.ru;http://system-ab.ru/;Автомобили / Автосервис, услуги, Автомобили / Запчасти, аксессуары;Автосервисы, Автосигнализация, Тонировка авто;ежедневно, 10:00–20:00;;;;;;;;;;;81;4.9;36;55.861449;37.343694
1400812316;Шинный сервис;Москва и Московская область;;Звенигородское ш., 114А, п. г. т. Большие Вязёмы;;;+7 (919) 969-24-00;37dir@truck-sc.ru, esipovo@truck-sc.ru, kuznetsova@nftg.ru, shaburakov@nftg.ru, sokolova@nftg.ru;http://www.truck-sc.ru/;Автомобили / Автосервис, услуги, Автомобили / Запчасти, аксессуары;Шиномонтажи, Шины и диски;ежедневно, 09:00–20:00;;;;;;;;;;;51;2.9;15;55.631308;36.984291
82071558405;Медведь;Москва и Московская область;;Алтуфьевское шоссе, 1-й километр, 3, стр. 1, Москва;;+7 (495) 128-13-33;+7 (968) 974-84-84;sale@shop-bear.ru;https://shop-bear.ru/;Автомобили / Автосервис, услуги, Автомобили / Запчасти, аксессуары;Автоакустика, Автоателье, Тюнинг;ежедневно, 10:00–20:00;наличными, оплата картой, рассрочка, безналичная, QR-код, оплата кредитной картой;;;;https://vk.com/bear_sound, https://vk.com/bear_sound_vesna;;https://www.youtube.com/channel/UCgBg8hFoGlcmVWchop6fwNg;;;;584;4.9;297;55.91251;37.585615
81651696710;Dongfeng;Москва и Московская область;;д. Рекино-Кресты, территория Промышленная зона № 1, с1А;;+7 (495) 150-12-19;;info@dongfeng-bts.ru, info@dongfengrussia.ru;https://dongfeng-bts.ru/;Автомобили / Автосервис, услуги, Автомобили / Запчасти, аксессуары, Производство и поставки / Машиностроение;Автосервисы, Грузовая техника, Запчасти для спецтехники;ежедневно, 09:00–21:00;наличными, оплата картой, банковским переводом, безналичная;;;;;;;;;;96;4.4;37;56.166917;37.007212
1402171235;Мир моторов;Москва и Московская область;;Революционная ул., 142, корп. 1, село Молоково;142714;+7 (498) 787-90-90, +7 (498) 787-99-77;;best.motors@zaoair.com, motornye.tehnologii@zaoair.com;https://www.zaoair.com/;Автомобили / Автосервис, услуги, Производство и поставки / Машиностроение;Автосервисы, Грузовая техника, Ремонт двигателей;"пн-пт 08:00–17:00; сб,вс 10:00–18:00";наличными, электронными деньгами, наложенным платежом;;;;https://vk.com/id432303069;;https://www.youtube.com/channel/UCy0Kz9YKFXR-3kFLPrMTU8w;;;;257;4.7;99;55.562495;37.873035
1402266935;Тахорусс;Москва и Московская область;;Объездное ш., 3, посёлок Государственного племенного завода Константиново;142032;+7 (499) 719-69-67, 8 (800) 700-66-20;+7 (968) 738-03-70;044220@mail.ru;http://ustanovkatahografa.ru/;Автомобили / Автосервис, услуги, Автомобили / Запчасти, аксессуары, Телекоммуникации и связь / Мобильная связь;Автосервисы, Мониторинг транспорта, Тахографы;"пн-пт 09:00–18:00; сб 10:00–15:00";дисконтная система скидок, предоплата, постоплата, наличными, оплата картой, банковским переводом, рассрочка, безналичная, онлайн, оформление кредита;79687380370, 79856637158;;;;;;;;;399;4.9;146;55.429464;37.7097
81344310176;Автомолл Север;Москва и Московская область;;МКАД, 84-й километр, вл1, Москва;;+7 (495) 106-77-82;;info@automall.ru;https://automallsever.ru/;Автомобили / Автосервис, услуги, Автомобили / Продажа;Автомагазины, Авторынки, Автосервисы;ежедневно, 09:00–21:00;наличными, оплата картой, безналичная, QR-код;;;;https://vk.com/automall_moscow, https://vk.com/automallkuntsevo;;;;;;1010;5.0;329;55.911209;37.587201
73006575920;Автоберег;Москва и Московская область;;Нижняя Подгорная ул., 1Д, село Верхнее Мячково;;;+7 (969) 150-00-81;bbcarwash@ya.ru, info@bbcarwash.ru, sasha.tselovalnikov@gmail.com;https://bbcarwash.ru/;Автомобили / Автосервис, услуги, Автомобили / Продажа;Автомойки, Детейлинг, Шиномонтажи;ежедневно, круглосуточно;постоплата, наличными, оплата картой, банковским переводом, безналичная, онлайн, QR-код, СБП, оплата кредитной картой;79691500081;https://viber.click/79691500081;https://t.me/AUTOBEREGBELBEREG;;;;;;;172;4.9;67;55.551823;38.006193
1038021305;Контурс-СДМ;Москва и Московская область;;ул. Гаршина, 11, корп. 36, п. г. т. Томилино;140070;;+7 (985) 774-58-73;info@remgidravlika.ru;https://remgidravlika.ru/, https://www.konturs-sdm.ru/;Автомобили / Автосервис, услуги, Производство и поставки / Гидравлика и пневматика;Насосы, Ремонт гидравлического и пневматического оборудования, Ремонт спецтехники;пн-пт 09:00–18:00;наличными, оплата картой, банковским переводом;79857745873;;https://t.me/+79857745873;;;;;;;19;4.7;7;55.662116;37.964863
80935410168;Дилерский центр Volkswagen КорсГрупп Коломна;Москва и Московская область;;Московская область, городской округ Коломна, М-5 Урал, 100-й километр, 1Г;;+7 (495) 477-57-48;;info@timeweb.ru;;Автомобили / Автосервис, услуги, Автомобили / Продажа;Автосалоны, Автосервисы, Шиномонтажи;ежедневно, 10:00–18:00;;;;;https://vk.com/kors_group, https://vk.com/vwkors;;;;;;584;4.4;188;55.159197;38.685695
1039062483;КБ Спецавтотехника;Москва и Московская область;;Промышленная ул., 11/1, рабочий посёлок Селятино;143346;;+7 (903) 729-60-54, +7 (903) 790-99-88, +7 (926) 521-97-15;df@sat93.ru, sto@sat93.ru;http://www.спецавтотехника.рф/, https://sat93.ru/;Автомобили / Автосервис, услуги, Автомобили / Продажа, Производство и поставки / Машиностроение;Автосалоны, Автосервисы, Грузовая техника, Переоборудование авто;пн-пт 08:00–17:00, перерыв 12:00–13:00;;;;;;;http://youtube.com/c/spetsavtotehnika;;;;97;4.3;30;55.518628;36.976707
1221689939;Дизель про;Москва и Московская область;;д. Алабино, 73;;+7 (495) 722-55-68, 8 (800) 700-13-32;+7 (903) 722-55-68;info@diesel-pro.ru;http://www.diesel-pro.ru/;Автомобили / Автосервис, услуги, Производство и поставки / Машиностроение;Автосервисы, Производство автозапчастей, Ремонт двигателей;пн-пт 10:00–19:00;наличными, оплата картой, электронными деньгами, банковским переводом;79037225568;https://viber.click/79037225568;;https://vk.com/dieselproshop;;https://www.youtube.com/channel/UCkb9i4-qaK3xG549DEB7LKw;;;;160;4.8;66;55.522747;37.011384
80751565248;Турботехсервис;Москва и Московская область;;посёлок Развилка, 5/5;;+7 (495) 230-12-42;;atl31@mail.ru, info@turbotechservice.ru, lturbo77@yandex.ru;https://www.turbotechservice.ru/;Автомобили / Автосервис, услуги, Автомобили / Продажа;Автомагазины, Автосервисы, Ремонт турбин;"пн-пт 09:00–18:00; сб 09:00–14:00";предоплата, наличными, оплата картой, банковским переводом, рассрочка, безналичная;74952301242;;;;;;;;;383;4.9;151;55.596206;37.745972
51273157048;АвтоСпецСнаб Сервис;Москва и Московская область;;д. Уварово, 105;;+7 (495) 291-03-12;;sto@ooo-acc.ru;https://sto-acc.ru/;Автомобили / Автосервис, услуги;Автосервисы;пн-пт 09:00–18:00;;;;;;;;;;;20;4.7;11;55.255523;37.832809
80631808043;Автокристалл;Москва и Московская область;;д. Апаринки, 19;142715;;+7 (958) 581-55-57;isafro@yandex.ru, office-avtokristall@yandex.ru;https://avtokristall.ru/;Автомобили / Автосервис, услуги, Автомобили / Запчасти, аксессуары, Автомобили / Продажа;Автомагазины, Автостёкла, Тонировка авто;пн-сб 09:00–19:00;наличными, электронными деньгами, безналичная, онлайн;;;https://t.me/AvtokristallBot;https://vk.com/club159299916, https://vk.com/sto_avtokristal;;;;;;6;4.0;1;55.573639;37.758382
80482073469;Диалдрайв;Москва и Московская область;;Молодёжная ул., 1Б, посёлок Подольской машинно-испытательной станции;;;+7 (916) 496-87-78, +7 (985) 040-61-83;dialdrayv@bk.ru, pto@dialdrive.ru;https://dialdrive.ru/;Автомобили / Автосервис, услуги;Автосервисы;пн-сб 10:30–21:00;;79856461556;;;;;https://www.youtube.com/channel/UCl53A-KwsOtCXA6rSeo0zlg?view_as=subscriber;;;;66;4.9;35;55.352104;37.551115
21621600114;Автотехцентр Mercedes;Москва и Московская область;;Промышленная ул., с1, д. Чёрная Грязь;;+7 (499) 113-55-46;;info@lrsever.ru, info@mbsever.ru;https://mbsever.ru/;Автомобили / Автосервис, услуги;Автосервисы, Тюнинг;ежедневно, 09:00–21:00;;;;https://t.me/lrvzmtl;https://vk.com/landroverremont;;;;;;0;0.0;0;55.970509;37.317751
1404190593;СИАС;Москва и Московская область;;Симферопольское ш., 3, Москва;;+7 (495) 981-08-56, 8 (800) 775-40-71;+7 (985) 411-26-30;ilina@sovinter.ru, mail@sovinter.ru;;Автомобили / Автосервис, услуги, Автомобили / Продажа, Производство и поставки / Машиностроение;Автомагазины, Автосервисы, Грузовая техника;ежедневно, 09:00–21:00;безналичная, оформление кредита;;;https://t.me/sias_auto;https://vk.com/sias_auto;;https://www.youtube.com/channel/UCNojQtOM_AI03XHEQUqakow;;;;1062;4.5;232;55.566679;37.604194
72843121583;Даф Сервис Мастер;Москва и Московская область;;д. Васильевское, территория Васильевское-1, 6;;;+7 (903) 271-06-84;dafservice@list.ru;http://dafservice.com/;Автомобили / Автосервис, услуги, Бизнес / Страхование;Автосервисы, Автострахование, Пункты техосмотра;"пн-пт 09:00–18:00; сб 09:00–14:00";;79032710684;;;;;;;;;0;0.0;0;55.000766;37.413197
72803288904;Gen2;Москва и Московская область;;Луговая ул., 9А, п. г. т. Мисайлово;;;+7 (991) 566-86-62;info@collary.ru, service.gen2@gmail.com;https://gen2.ru/;Автомобили / Автосервис, услуги;Автосервисы;ежедневно, 10:00–20:00;наличными, оплата картой, QR-код, оплата кредитной картой, СБП, бесконтактная оплата;79915668662;;https://t.me/gen2service;https://vk.com/gen2service;;https://www.youtube.com/@gen28935/featured;;;;174;5.0;103;55.561301;37.832597
72513285305;БорисХоф Вольт Каширский;Москва и Московская область;;МКАД, 24-й километр, 1, посёлок Совхоза имени Ленина;142715;+7 (495) 292-72-97;;info.volt@borishof.ru;https://borishof-volt.ru/?utm_campaign=promo&utm_medium=cpc&utm_source=ymaps;Автомобили / Автосервис, услуги, Автомобили / Продажа;Автосалоны, Автосервисы, Электромобили, продажа и сервис;ежедневно, 09:00–21:00;наличными, оплата картой, банковским переводом, sms-платеж, безналичная, онлайн, QR-код, СБП, оплата кредитной картой, оформление кредита;;;https://t.me/+30TNSmnb0os2MjIy;;;https://www.youtube.com/@borishof_official;;;;129;5.0;83;55.588173;37.723858
80277789615;Авдеко;Москва и Московская область;;ул. Быковского, 20А, Балашиха;;;+7 (961) 888-34-11;info@avdeko.ru;https://avdeko.ru/;Автомобили / Автосервис, услуги;Автосервисы;;;;;;;;;;;;0;0.0;0;55.802801;37.958555
18183071002;Zimwerk;Москва и Московская область;;Можайское ш., 166, рабочий посёлок Новоивановское;143026;+7 (495) 966-12-40;;info@zimwerk.ru;https://zimwerk.ru/msk;Автомобили / Автосервис, услуги;Автосервисы;ежедневно, 10:00–20:00;наличными, QR-код, оплата кредитной картой, предоплата, онлайн, безналичная, банковским переводом, оплата картой, СБП;79687383418;;https://t.me/zimwerkk;;;http://youtube.com/c/VAGCENTER;;;;1360;5.0;630;55.708994;37.386012
7391859041;Трак Партс Sitrak;Москва и Московская область;;п. г. т. Калининец, территория Промышленная, с1;;;;info@tp-sinotruck.ru, info@tp-sinotruk.ru, info@tp-trucks.ru;;Автомобили / Автосервис, услуги, Автомобили / Продажа, Производство и поставки / Машиностроение;Автомагазины, Автосервисы, Грузовая техника;ежедневно, 09:00–21:00;наличными, банковским переводом, безналичная;;;;;;;;;;118;4.3;24;55.531326;36.981515
18232190139;Трак Партс, официальный дилер Hino;Москва и Московская область;;рабочий посёлок Калининец, территория Промышленная, с1;;+7 (495) 236-72-00;;aberko@tp-trucks.ru, sale@its-hino.ru, vtaller@its-hino.ru;https://its-hino.ru/;Автомобили / Автосервис, услуги, Автомобили / Продажа, Производство и поставки / Машиностроение;Автосалоны, Автосервисы, Грузовая техника;ежедневно, 09:00–21:00;;;;https://t.me/tptrucks;;;;;;;117;4.6;31;55.531176;36.982349
1409204041;Галагрин;Москва и Московская область;;ул. Чехова, 4, п. г. т. Родники;;;+7 (903) 000-30-94, +7 (905) 760-56-03;galagrin4x4@mail.ru, galka@galagrin.ru, haustov@galagrin.ru, ustyzhanin@galagrin.ru;http://www.galagrin.ru/;Автомобили / Автосервис, услуги;Автосервисы;пн-пт 10:00–18:30;;79057605603;;;https://vk.com/galagrin;;;;;;110;4.4;34;55.65046;38.051315
79658708109;Рам-то;Москва и Московская область;;Центральная ул., 176/2, д. Кузнецово;;;+7 (977) 979-25-25;oto2021@yandex.ru, ram-to50@mail.ru;https://техосмотр-раменское.рф/;Автомобили / Автосервис, услуги;Пункты техосмотра;ежедневно, 08:00–18:00;;79779792525;;;;;;;;;262;5.0;100;55.507269;38.304403
7441511613;Детейлинг студия Автокомфорт;Москва и Московская область;;ул. 1 Мая, 14В, село Павловская Слобода;;;+7 (916) 017-66-44, +7 (925) 836-67-44;mironenko.vladis@yandex.ru;https://auto-comfort77.ru/;Автомобили / Автосервис, услуги, Автомобили / Запчасти, аксессуары, Автомобили / Продажа;Автостёкла, Детейлинг, Тонировка авто;"пн-пт 09:00–21:00; сб,вс 13:00–20:00";наличными, оплата картой, банковским переводом, безналичная, QR-код;79160176644;;;;;;;;;334;5.0;219;55.820047;37.08417
79648869801;Райза;Москва и Московская область;;ул. Барышиха, 57Б, Москва;125310;+7 (495) 972-54-29;;info@wowfil.ru;http://www.johnson.su/, http://www.raiza.ru/, http://www.wowfil.ru/;Автомобили / Автосервис, услуги, Строительство и недвижимость / Стройматериалы;Защитные плёнки, Тонировка авто;пн-пт 10:00–18:00;;;;;;;;;;;7;4.2;2;55.861348;37.344646
13713383924;Торговый Дом Авто;Москва и Московская область;;МКАД, 32-й километр, с1, Москва;;+7 (495) 500-83-83;+7 (926) 502-68-68;tda@tda32.ru;https://faw.su/;Автомобили / Автосервис, услуги, Автомобили / Продажа;Автосалоны, Автосервисы;пн-пт 09:00–18:00;безналичная;79267481517;https://viber.click/79887315979;https://t.me/faw_tda;;;;;;;109;4.9;30;55.573358;37.618114
1412900752;МаксАвто;Москва и Московская область;;Кооперативная ул., 7/8, рабочий посёлок Михнево;;;+7 (926) 546-56-35;mmaxauto.aviagorodok@mail.ru;http://shop.mmaxauto.ru/;Автомобили / Автосервис, услуги, Автомобили / Продажа;Автомагазины, Автосервисы;ежедневно, 08:00–20:00;;79265465635;;;;;;;;;391;4.9;128;55.119225;37.956999
1416383085;МастерКЭМП;Москва и Московская область;;;142143;+7 (495) 926-22-21, +7 (495) 926-22-22;;alex@kemp103.ru, autoservice@kemp103.ru, podolsk@kemp103.ru, service-vsk@kemp103.ru;http://masterkemp.ru/, https://kemp103.ru/;Автомобили / Автосервис, услуги;Автосервисы;ежедневно, 09:00–20:00;;;;;;;;;;;92;4.4;29;55.449242;37.618542
72458337664;Dbc detailing;Москва и Московская область;;посёлок Жилино, 2М/1;;+7 (495) 663-56-93;+7 (925) 149-26-27;zel@dbcdetailing.ru;https://dbc-detailing.ru/;Автомобили / Автосервис, услуги, Автомобили / Продажа, Бытовые услуги / Бытовые услуги;Автохимчистки, Детейлинг, Оклейка машин;ежедневно, 10:00–20:00;наличными, предоплата, безналичная, оплата картой, QR-код, постоплата, СБП, рассрочка;79251492627;;https://t.me/dbcdetailing;;;;;;;141;5.0;88;55.977799;37.085017
79565646507;Левел;Москва и Московская область;;Можайское ш., 166, рабочий посёлок Новоивановское;143026;+7 (499) 116-57-18;;5f7bea358b88463f99a14c6cb969ba21@mail.konget, akostomaha@1evel.ru, info@1evel.ru, sales@1evel.ru;https://1evel.ru/;Автомобили / Автосервис, услуги, Автомобили / Продажа, Бытовые услуги / Бытовые услуги;Детейлинг, Оклейка машин, Тюнинг;ежедневно, 09:00–21:00;наличными, оплата картой, банковским переводом, безналичная;74951207767;;;;;;;;;144;5.0;52;55.709315;37.387621
1417441395;Кордайл;Москва и Московская область;;Шоссейная ул., 18Б, посёлок Северный;143500;+7 (495) 729-66-81;+7 (963) 605-79-16, +7 (963) 719-96-76;info@kordail.ru;http://kordail.ru/;Автомобили / Автосервис, услуги, Автомобили / Запчасти, аксессуары;Шиномонтажи, Шины и диски;"пн-пт 09:00–19:00; сб,вс 10:00–17:00";оплата картой, предоплата, наличными, банковским переводом;79636057916;;;http://vk.com/kordailru, https://vk.com/zaokordail;;;;;;131;5.0;94;55.94894;36.83986
79552680090;Мой сам;Москва и Московская область;;посёлок Вешки, торгово-промышленная зона Алтуфьево, вл3с1;;;+7 (915) 135-17-39, +7 (925) 432-79-00;info@xn----8sbzldix.xn;http://мой-сам.рф/;Автомобили / Автосервис, услуги;Автомойки;ежедневно, 09:00–21:30;;;;;;;;;;;607;4.2;282;55.912103;37.570647
79263533779;Здоба Перформанс;Москва и Московская область;;Центральная ул., 1Г, д. Хрипань;;;+7 (916) 444-14-14;zdoba@performance.ru;http://zdoba-performance.ru/;Автомобили / Автосервис, услуги;Автосервисы;ежедневно, 10:00–20:00;;79164441414;https://viber.click/79164441414;https://t.me/+7;https://vk.com/zdoba_performance;;https://www.youtube.com/@zdobaperformance6979;;;;425;5.0;257;55.634404;38.17867
1422198635;Аттиво.ру;Москва и Московская область;;пер. Строителей, 12, п. г. т. Шаховская;143700;+7 (495) 135-07-09;+7 (926) 530-23-71;report@attivo.ru;;Автомобили / Автосервис, услуги, Автомобили / Продажа;Автомагазины, Автосервисы, Заправка автокондиционеров;пн-пт 10:00–18:00;дисконтная система скидок, предоплата, наличными, оплата картой, электронными деньгами, банковским переводом, рассрочка, безналичная, онлайн;;;http://t.me/attivoru, https://t.me/79265302371;http://vk.com/attivo;;;;;;67;4.4;19;56.03448;35.519077
1047925424;Барс;Москва и Московская область;;Лесопарковая ул., 2, п. г. т. Нахабино;;+7 (495) 510-51-67, +7 (495) 566-50-50, +7 (499) 283-48-56;;info@avto-bars.ru;https://avto-bars.ru/;Автомобили / Автосервис, услуги;Автосервисы, Кузовной ремонт, Пункты техосмотра;ежедневно, 09:00–21:00;;;;;;;;;;;1594;4.7;673;55.840559;37.209067
60820445284;Рейка Рем;Москва и Московская область;;Можайское ш., 159, корп. 6, рабочий посёлок Новоивановское;;;+7 (915) 126-86-27;info@reika-rem.ru, sprite@2x.basic, sprite@2x.dark;https://kuntsevo.reika-rem.ru/;Автомобили / Автосервис, услуги;Автосервисы;пн-сб 10:00–20:00;;79151268627;;;;;;;;;0;0.0;0;55.710814;37.385547
1049243735;ААА Траксервис;Москва и Московская область;;д. Кузнецы, 58Д;142542;+7 (495) 777-77-36;;autosalon@aaa-ts.ru, info@aaa-ts.ru, info@jac-aaa.ru, parts@aaa-ts.ru, sales@man-ts.ru, service@aaa-ts.ru, used@aaa-ts.ru;https://aaa-ts.ru/;Автомобили / Автосервис, услуги, Производство и поставки / Машиностроение;Грузовая техника, Ремонт грузовых автомобилей;ежедневно, 09:00–18:00;предоплата, наличными, оплата картой, банковским переводом, безналичная, онлайн;;;;;;;;;;525;4.4;126;55.855126;38.666812
35473023621;Автодом Li Auto Алтуфьево;Москва и Московская область;;МКАД, 85-й километр, вл5с2, торгово-промышленная зона Алтуфьево, посёлок Вешки;;+7 (495) 500-50-00;;howo@avtodom.ru, info.vnukovo@jaecoo-avtodom.ru, info.vnukovo@omoda-avtodom.ru, info.zapad@gac-avtodom.ru, info@avtodom.ru, pr@avtodom.ru, sitrak@avtodom.ru;https://avtodom.ru/;Автомобили / Автосервис, услуги, Автомобили / Продажа;Автосалоны, Автосервисы;ежедневно, 09:00–21:00;sms-платеж, оплата картой, наличными;;;;;;;;;;5;3.8;1;55.908863;37.599248
1049474335;Автосервис Avl Service;Москва и Московская область;;Московская область, Одинцовский городской округ, посёлок городского типа Лесной Городок, гаражный кооператив Вираж;;;+7 (926) 463-42-52, +7 (926) 913-12-23;avtoservis@mail.ru, sponsorovnet2@mail.ru;http://www.avtoservisvlesnom.ru/;Автомобили / Автосервис, услуги;Автосервисы;ежедневно, 09:00–20:00;;79264634252;;;;;;;;;158;4.7;75;55.64031;37.219082
79072808842;Автокожа;Москва и Московская область;;МКАД, 33-й километр, 1, Москва;;+7 (495) 127-03-75;;info@autokoja.ru;https://autokoja.ru/;Автомобили / Автосервис, услуги, Автомобили / Продажа;Автоателье, Детейлинг;"пн-пт 10:00–18:00; сб 11:00–17:00";;74951270375;;;;;;;;;87;5.0;58;55.574827;37.600434
62276019710;Инфорком Инструмент;Москва и Московская область;;Дорожная ул., 16, село Долматово;142074;;+7 (963) 777-73-18;inforkomtools@mail.ru;https://inforkom-tools.ru/;Автомобили / Автосервис, услуги, Производство и поставки / Оборудование для АЗС и автосервиса, Услуги / Прочее;Автосервисное оборудование, Пункты выдачи, Шиномонтажи;ежедневно, 09:00–18:00, перерыв 14:00–15:00;;;;;;;;;;;97;4.4;29;55.334407;37.724162
78906861748;Шиномонтаж;Москва и Московская область;;Северная ул., 117, д. Супонево;;;+7 (926) 034-01-13;shinnik-shinomontazh@mail.ru;https://shinnik-shinomontazh.ru/;Автомобили / Автосервис, услуги;Шиномонтажи;ежедневно, 09:00–20:00;наличными, оплата картой, банковским переводом;;;;https://vk.com/zvenigorod_shinomontazh;;;;;;45;4.4;20;55.755493;36.870319
1051961134;Атего.ру;Москва и Московская область;;Московская область, Осташковское шоссе, 15;;;;info@atego-club.ru, info@atego.ru;;Автомобили / Автосервис, услуги, Автомобили / Запчасти, аксессуары, Автомобили / Продажа, Производство и поставки / Машиностроение;Автомагазины, Автомойки, Автосервисы, Грузовая техника, Ремонт АКПП, Тахографы, Шиномонтажи;"пн-пт 09:00–18:00; сб 09:00–15:00";дисконтная система скидок, постоплата, наличными, оплата картой, банковским переводом, безналичная, оплата кредитной картой;;;;;;;;;;250;4.8;79;55.913131;37.668441
1429106654;Сервис Ауди Фольксваген Шкода Палекс-Авто;Москва и Московская область;;Можайское ш., 159, корп. 9, рабочий посёлок Новоивановское;143026;+7 (495) 162-05-62;+7 (964) 649-49-45;46e524490d12ce3a50b703f360ce5738@sentry23.udsgame.com, alexeynikolaev@gmail.com;https://palexauto.uds.app/c/join?ref=ckfu9841, https://www.palex-auto.ru/;Автомобили / Автосервис, услуги, Производство и поставки / Машиностроение;Автосервисы, Ремонт АКПП, Ремонт двигателей;ежедневно, 09:00–20:00;дисконтная система скидок, предоплата, постоплата, наличными, оплата картой, электронными деньгами, банковским переводом, sms-платеж, безналичная, онлайн, QR-код, СБП;79646494945;;https://t.me/Palex_auto_VW;https://vk.com/palexauto;;https://www.youtube.com/channel/UCPav3vf-E8mmDBDm-JXwjaA/featured?disable_polymer=true;;;;758;5.0;373;55.711317;37.38469
18361690224;ImageCars;Москва и Московская область;;Московская ул., 12А, село Немчиновка;;;+7 (929) 555-50-40;info@imagecars.pro;https://imagecars.pro/;Автомобили / Автосервис, услуги, Автомобили / Продажа, Бытовые услуги / Бытовые услуги;Детейлинг, Оклейка машин, Тонировка авто;ежедневно, 09:00–22:00;предоплата, наличными, оплата картой, электронными деньгами, банковским переводом, sms-платеж, безналичная, онлайн, СБП;79162175040;;https://t.me/Imagecars;https://vk.com/club191278821, https://vk.com/imagecarsmsc, https://vk.com/public191278821;;https://www.youtube.com/@imagecars?si=eXBpBWEtPMhIki34;;;;115;5.0;89;55.722713;37.375343
18420935684;Шиномонтаж грузовой легковой;Москва и Московская область;;д. Бахтеево, 191;;;+7 (977) 266-33-31;v2444445@gmail.com;https://shinomontazh-gruzovoj-legkovoj-1682604972.clients.site/;Автомобили / Автосервис, услуги, Автомобили / Запчасти, аксессуары;Шиномонтажи, Шины и диски;ежедневно, 08:00–19:30;постоплата, наличными, банковским переводом, рассрочка;79772663331;https://viber.click/79772663331;;;;;;;;195;5.0;116;55.589731;38.524424
1439294107;Шиномонтаж SM 24;Москва и Московская область;;д. Бузланово, микрорайон Западный Остров, к6;;;+7 (985) 922-82-66;info@sm24.ru;https://www.sm24.ru/;Автомобили / Автосервис, услуги, Автомобили / Запчасти, аксессуары, Производство и поставки / Сварочное оборудование;Автокондиционеры, Сварочные работы, Шиномонтажи;;дисконтная система скидок, наличными, оплата картой, банковским переводом, безналичная;;;;https://vk.com/shinomontazh.sm24;https://ok.ru/group/54439017513068;;;;;252;4.7;77;55.774171;37.208748
18498074236;Ремонт АКПП;Москва и Московская область;;Новая ул., 138, село Акулово;;;+7 (903) 363-76-45, +7 (925) 055-55-21;arndtaleksandr@mail.ru;http://remont-akpp77.ru/;Автомобили / Автосервис, услуги;Ремонт АКПП;пн-сб 10:00–19:00;скидки на услуги льготным категориям, предоплата, постоплата, наличными, банковским переводом;79033637645;https://viber.click/79033637645;https://t.me/+79033637645;;;;;;;119;5.0;94;55.665231;37.237088
35441449052;РТ-Сервис;Москва и Московская область;;Пятницкое ш., 11/1, д. Горетовка;;;+7 (925) 098-70-99;teh7735@yandex.ru;https://tstzap.ru/;Автомобили / Автосервис, услуги, Автомобили / Продажа;Автомагазины, Автомойки, Автосервисы;"пн-пт 09:00–19:00; сб 09:00–15:00";наличными, оплата картой, банковским переводом, QR-код, оплата кредитной картой;79250987099;;;;;;;;;117;4.8;46;55.961437;37.105224
27706547920;Уно;Москва и Московская область;;Центральная ул., с101, д. Чепелёво;;+7 (499) 400-50-56;;help@unomoika.ru;https://unomoika.ru/;Автомобили / Автосервис, услуги;Автомойки, Автохимчистки;ежедневно, круглосуточно;дисконтная система скидок, предоплата, постоплата, наличными, оплата картой, безналичная;79263359194;;;;;;;;;1521;4.9;511;55.176602;37.478586
7718266517;Кар-Лэнд;Москва и Московская область;;ул. Объездная Дорога, 1Г, стр. 4, посёлок Сосновый Бор;142108;;+7 (903) 749-71-03;remaudi@yandex.ru;https://kar-lend.clients.site/;Автомобили / Автосервис, услуги;Автосервисы;ежедневно, 10:00–19:00;наличными, оплата картой;79037497103;;;https://vk.com/avtoservis_car_land;;;;;;213;5.0;92;55.390364;37.556862
72368473439;Моюсам Nerta Sw;Москва и Московская область;;Центральная ул., 15Б, село Кудиново;142435;;+7 (968) 512-71-81;info@nerta-sw.ru;http://www.nerta-sw.ru/;Автомобили / Автосервис, услуги;Автомойки;ежедневно, круглосуточно;;;;;http://vk.com/nerta_sw;;;;;;255;4.4;95;55.765159;38.212207
72124758809;Шинсервис;Москва и Московская область;;Крымская ул., 30, стр. 4, д. Бережки;;+7 (495) 152-73-42;;kabikov@sst.su;https://www.shinservice.ru/?utm_campaign=premium_tire_service_moscow&utm_medium=referral&utm_source=Ymaps&utm_source=Ymaps?utm_campaign=premium_tire_service_moscow;Автомобили / Автосервис, услуги, Автомобили / Запчасти, аксессуары, Производство и поставки / Электроника и электротехника;Автосервисы, Аккумуляторы и зарядные устройства, Шиномонтажи, Шины и диски;"пн-пт 09:00–21:00; сб,вс 09:00–20:00";наличными, оплата картой, безналичная, QR-код, СБП, оплата кредитной картой;79260817307;;;https://vk.com/shinserviceru;;;;;;2483;5.0;1079;55.386396;37.605892
72112212701;Акпп-проф;Москва и Московская область;;д. Медвежьи Озёра, ГСПК Десантник, 334;;;+7 (968) 438-54-24;akppteh2@yandex.ru;https://akppprof.ru/;Автомобили / Автосервис, услуги;Ремонт АКПП;ежедневно, 10:00–20:00;предоплата, постоплата, наличными, оплата картой, банковским переводом, безналичная, онлайн, QR-код, СБП;;;;;;;;;;128;5.0;104;55.872;37.981205
78735164420;Запчасти Toyota;Москва и Московская область;;село Лужки, 12Д;;;+7 (916) 095-16-52;zakaz@toyota495.ru;https://toyota495.ru/;Автомобили / Автосервис, услуги, Автомобили / Продажа;Автомагазины, Автосервисы;пн-сб 09:00–19:00;наличными, оплата картой;;;;;;;;;;8;4.4;5;55.929956;36.623254
1453084682;Турбо-Вест;Москва и Московская область;;Московская ул., 10, село Немчиновка;;+7 (499) 350-20-16, +7 (499) 350-22-12;+7 (925) 612-10-51;info@turbo-west.ru, ivanov@domain.ru;http://lp.turbo-west.ru/;Автомобили / Автосервис, услуги;Автосервисы, Ремонт турбин;"пн-пт 10:00–19:00; сб 10:00–17:00; вс 11:00–16:00";;79687758151;;https://t.me/89161234112;;;;;;;21;4.0;6;55.723374;37.377521
22634146474;Fngroup;Москва и Московская область;;Московская область, Ленинский городской округ, промзона Пуговичино, вл8;;8 (800) 100-86-58;;office@fngroup.ru;https://fngroup.ru/;Автомобили / Автосервис, услуги, Строительство и недвижимость / Строительное оборудование и техника;Автосервисы, Дорожная техника, Ремонт спецтехники;пн-пт 08:00–17:00;наличными, оплата картой;;;https://t.me/fngroup_ru;https://vk.com/fngroup_ru;;https://www.youtube.com/channel/UCiFtUq9yOzIloQQ3xfYM7cQ;;;;46;4.3;8;55.536904;37.754449
77693031064;Кузовной ремонт;Москва и Московская область;;;141044;;+7 (980) 217-98-93;sts2001@ya.ru;http://sts2001.narod.ru/;Автомобили / Автосервис, услуги, Бизнес / Страхование;Автострахование, Кузовной ремонт, Пункты техосмотра;ежедневно, круглосуточно;;;;;;;;;;;5;3.8;0;55.956728;37.535645
1247781958;Орех;Москва и Московская область;;Сходненское ш., 5А, д. Чёрная Грязь;;+7 (495) 025-42-22;+7 (916) 701-14-35;ancyfrov@opex.ru, service2@opex.ru, ssa@opex.ru, your@mail.com;https://service.opex.ru/;Автомобили / Автосервис, услуги;Автосервисы, Ремонт грузовых автомобилей, Экспресс-пункты замены масла;ежедневно, 08:30–20:30;дисконтная система скидок, предоплата, постоплата, наличными, оплата картой, банковским переводом, наложенным платежом;;;https://t.me/opex_truck_parts;https://vk.com/zao.opex;https://www.ok.ru/group/55077894226101;;;;;336;4.8;107;55.972335;37.312823
72064176106;Ниссан-Забота;Москва и Московская область;;Московская область, Ленинский городской округ, посёлок Развилка;;;+7 (926) 676-15-69, +7 (977) 258-22-23;info@nissan-zabota.ru;https://nissan-zabota.ru/, https://nissan-zapchasti.ru/;Автомобили / Автосервис, услуги;Автосервисы, Кузовной ремонт;"пн-пт 09:30–20:00; сб 10:00–18:00";скидки на услуги льготным категориям, оплата картой, банковским переводом, безналичная, онлайн, QR-код, СБП;79266761569;https://viber.click/89266761569;https://t.me/89266761569;https://vk.com/nissanzabota;;;;;;695;5.0;318;55.596788;37.742498
1457547774;Автодом Volvo Алтуфьево;Москва и Московская область;;МКАД, 85-й километр, вл5с2, торгово-промышленная зона Алтуфьево, посёлок Вешки;;+7 (495) 126-92-15;;info.vnukovo@jaecoo-avtodom.ru, info.vnukovo@omoda-avtodom.ru, info.zapad@gac-avtodom.ru, info@avtodom.ru, info@volvocaraltufyevo.ru, pr@avtodom.ru;http://avtodom-altufievo.ru/?utm_campaign=volvo_altufievo_sayt_ssylka&utm_medium=maps&utm_source=yandex, https://avtodom.ru/?utm_campaign=sayt_ssylka_holding&utm_medium=maps&utm_source=yandex, https://volvo-altufyevo.ru/?utm_campaign=volvo_altufievo_sayt_ssylka&utm_medium=maps&utm_source=yandex;Автомобили / Автосервис, услуги, Автомобили / Продажа;Автосалоны, Автосервисы, Продажа автомобилей с пробегом;ежедневно, 09:00–21:00;;79035055004;;https://t.me/avtodom_gk;;;;;;;822;4.8;309;55.908944;37.599612
1806507347;Промастер;Москва и Московская область;;ул. Горбунова, 14А, Москва;;+7 (495) 222-44-64, +7 (495) 926-69-37;;promaster-shop@mail.ru;http://promaster-shop.ru/;Автомобили / Автосервис, услуги, Автомобили / Запчасти, аксессуары, Автомобили / Продажа;Автоаксессуары, Автомагазины, Автосервисы;ежедневно, 09:00–19:00;;;;;;;https://www.youtube.com/channel/UCawL7dulMsE6TaM1GJH1PfA/;;;;29;4.3;14;55.724474;37.376502
50734643074;Пункт технического осмотра;Москва и Московская область;;д. Лобаново, 230;;;+7 (926) 707-95-55;to2102@mail.ru;http://to-leshkovo.ru/;Автомобили / Автосервис, услуги, Автомобили / Запчасти, аксессуары;Пункты техосмотра, Тахографы;"пн-пт 09:00–18:00; сб 09:00–17:00";;;;;;;;;;;432;5.0;156;55.82018;37.109128
24501748401;Мое4ка;Москва и Московская область;;Новорязанское шоссе, 23-й километр, 23, рабочий посёлок Томилино;;;+7 (965) 410-23-33;evavto23@bk.ru;http://evavto.ru/, https://ip-aleksandrov-e-ju.clients.site/;Автомобили / Автосервис, услуги;Автомойки, Автохимчистки;;наличными, оплата картой, банковским переводом, безналичная, оплата кредитной картой;79654102333;;;;;;;;;21;4.4;14;55.65073;37.907851
77464533386;Камаспецшина;Москва и Московская область;;Московская область, Раменский муниципальный округ, квартал 46-15, Новая улица, 188;;+7 (495) 324-22-86;;avs@4avto.ru, balash@4avto.ru, bronn@4avto.ru, egorka@4avto.ru, mke@4avto.ru, ostrov@4avto.ru, pda@4avto.ru, penza@4avto.ru, post@4avto.ru, smagli@4avto.ru;https://4avto.ru/;Автомобили / Автосервис, услуги, Автомобили / Запчасти, аксессуары, Производство и поставки / Электроника и электротехника;Аккумуляторы и зарядные устройства, Шиномонтажи, Шины и диски;ежедневно, 09:00–18:00;скидки на услуги льготным категориям, дисконтная система скидок, предоплата, постоплата, наличными, оплата картой, банковским переводом, рассрочка;74954892286;;https://t.me/Kamaspecshina_bot;;;;;;;213;4.7;69;55.585465;37.991037
43797343640;Вилгуд;Москва и Московская область;;Московская область, городской округ Балашиха, Кучинское шоссе, 8;143900;+7 (495) 021-29-24;;hh-manager@wilgood.ru, info@wilgood.ru;https://wilgood.ru/?utm_campaign=balashikha-1&utm_medium=cpc&utm_source=ya_maps;Автомобили / Автосервис, услуги, Бытовые услуги / Бытовые услуги, Производство и поставки / Машиностроение;Автосервисы, Ремонт автоэлектрики, Ремонт АКПП, Ремонт двигателей, Экспресс-пункты замены масла;ежедневно, 09:00–21:00;наличными, оплата картой, банковским переводом;;;;https://vk.com/wilgood;;https://www.youtube.com/channel/UC2NOcN7bo4F3H0fuBjxImOA;;;;1085;4.4;632;55.777262;37.958997
72023016779;Шиномонтаж 32 км;Москва и Московская область;;посёлок Зелёный, 19;;;+7 (926) 186-60-25;shinka.32km@mail.ru;http://32km.ru/;Автомобили / Автосервис, услуги, Автомобили / Запчасти, аксессуары;Шиномонтажи, Шины и диски;ежедневно, 09:00–20:00;sms-платеж, оплата картой, банковским переводом, наличными, скидки на услуги льготным категориям;79295331875;;;;;;;;;6;4.3;5;55.807673;38.092619
77364412132;Toning. su;Москва и Московская область;;СНТ Зенит-2, 14;140125;;+7 (985) 202-99-21;toyotavod78@list.ru;http://toning.su/;Автомобили / Автосервис, услуги, Бытовые услуги / Бытовые услуги;Автосервисы, Оклейка машин, Тонировка авто;ежедневно, 10:00–20:00;;79852029921;https://viber.click/79852029921;https://t.me/79852029921;;;;;;;34;4.9;22;55.48833;38.020754
